% program   : RTKPOST ver.2.4.2
% inp file  : C:\Users\80575\Documents\Visual Studio 2015\Projects\GNSSJY\GNSSJY\bjfs2500.18o
% inp file  : C:\Users\80575\Documents\Visual Studio 2015\Projects\GNSSJY\GNSSJY\bjfs2500.18n
% obs start : 2018/09/07 00:00:00.0 GPST (week2017 432000.0s)
% obs end   : 2018/09/07 23:59:30.0 GPST (week2017 518370.0s)
% pos mode  : ppp-static
% solution  : forward
% elev mask : 15.0 deg
% dynamics  : off
% tidecorr  : off
% tropo opt : saastamoinen
% ephemeris : broadcast
% antenna1  :                       ( 0.0000  0.0000  0.0000)
%
% (lat/lon/height=WGS84/ellipsoidal,Q=1:fix,2:float,3:sbas,4:dgps,5:single,6:ppp,ns=# of satellites)
%  GPST                  latitude(deg) longitude(deg)  height(m)   Q  ns   sdn(m)   sde(m)   sdu(m)  sdne(m)  sdeu(m)  sdun(m) age(s)  ratio
2018/09/07 00:00:00.000   39.608582695  115.892489788    91.8043   6  10   2.5126   1.6662   5.0132  -0.9936   1.4829  -2.7263   0.00    0.0
2018/09/07 00:00:30.000   39.608582918  115.892490711    91.3417   6  10   1.7787   1.1790   3.5551  -0.7063   1.0540  -1.9339   0.00    0.0
2018/09/07 00:01:00.000   39.608584372  115.892490343    91.2067   6  10   1.4533   0.9632   2.9093  -0.5793   0.8644  -1.5830   0.00    0.0
2018/09/07 00:01:30.000   39.608583655  115.892490318    91.2318   6  10   1.2594   0.8345   2.5247  -0.5040   0.7518  -1.3741   0.00    0.0
2018/09/07 00:02:00.000   39.608583062  115.892490779    91.1554   6  10   1.1271   0.7468   2.2627  -0.4527   0.6752  -1.2317   0.00    0.0
2018/09/07 00:02:30.000   39.608582967  115.892490433    91.2219   6  10   1.0294   0.6820   2.0695  -0.4150   0.6189  -1.1268   0.00    0.0
2018/09/07 00:03:00.000   39.608583137  115.892490698    91.0958   6  10   0.9535   0.6317   1.9196  -0.3858   0.5753  -1.0453   0.00    0.0
2018/09/07 00:03:30.000   39.608583167  115.892490546    91.0154   6  10   0.8924   0.5912   1.7989  -0.3624   0.5402  -0.9798   0.00    0.0
2018/09/07 00:04:00.000   39.608583212  115.892490628    91.0433   6  10   0.8417   0.5576   1.6990  -0.3430   0.5113  -0.9256   0.00    0.0
2018/09/07 00:04:30.000   39.608583455  115.892490596    91.0044   6  10   0.7989   0.5292   1.6146  -0.3267   0.4868  -0.8797   0.00    0.0
2018/09/07 00:05:00.000   39.608583305  115.892490461    91.0500   6  10   0.7620   0.5048   1.5421  -0.3127   0.4659  -0.8403   0.00    0.0
2018/09/07 00:05:30.000   39.608583096  115.892490845    91.0811   6  10   0.7299   0.4835   1.4789  -0.3006   0.4477  -0.8060   0.00    0.0
2018/09/07 00:06:00.000   39.608583255  115.892490838    91.0512   6  10   0.7015   0.4648   1.4231  -0.2899   0.4317  -0.7758   0.00    0.0
2018/09/07 00:06:30.000   39.608583192  115.892490760    91.0601   6  10   0.6763   0.4481   1.3735  -0.2804   0.4174  -0.7488   0.00    0.0
2018/09/07 00:07:00.000   39.608583240  115.892490825    91.0848   6  10   0.6536   0.4331   1.3289  -0.2719   0.4047  -0.7246   0.00    0.0
2018/09/07 00:07:30.000   39.608583113  115.892490824    91.0890   6  10   0.6331   0.4195   1.2886  -0.2642   0.3931  -0.7028   0.00    0.0
2018/09/07 00:08:00.000   39.608583202  115.892490953    91.1186   6  10   0.6144   0.4072   1.2521  -0.2572   0.3826  -0.6830   0.00    0.0
2018/09/07 00:08:30.000   39.608583425  115.892490957    91.1176   6  10   0.5974   0.3959   1.2187  -0.2508   0.3730  -0.6649   0.00    0.0
2018/09/07 00:09:00.000   39.608583404  115.892491171    91.0963   6  10   0.5817   0.3856   1.1880  -0.2449   0.3641  -0.6482   0.00    0.0
2018/09/07 00:09:30.000   39.608583588  115.892491216    91.0867   6  10   0.5671   0.3760   1.1596  -0.2395   0.3560  -0.6328   0.00    0.0
2018/09/07 00:10:00.000   39.608583692  115.892491220    91.0762   6  10   0.5537   0.3671   1.1332  -0.2344   0.3484  -0.6186   0.00    0.0
2018/09/07 00:10:30.000   39.608583627  115.892491222    91.0761   6  10   0.5412   0.3589   1.1087  -0.2298   0.3414  -0.6053   0.00    0.0
2018/09/07 00:11:00.000   39.608583555  115.892491393    91.0711   6  10   0.5294   0.3511   1.0857  -0.2254   0.3348  -0.5928   0.00    0.0
2018/09/07 00:11:30.000   39.608583709  115.892491394    91.0482   6  10   0.5185   0.3439   1.0642  -0.2213   0.3286  -0.5812   0.00    0.0
2018/09/07 00:12:00.000   39.608583708  115.892491430    91.0508   6  10   0.5081   0.3372   1.0440  -0.2175   0.3228  -0.5702   0.00    0.0
2018/09/07 00:12:30.000   39.608583593  115.892491529    91.0591   6  10   0.4984   0.3308   1.0250  -0.2139   0.3174  -0.5599   0.00    0.0
2018/09/07 00:13:00.000   39.608583627  115.892491558    91.0383   6  10   0.4892   0.3248   1.0070  -0.2105   0.3122  -0.5501   0.00    0.0
2018/09/07 00:13:30.000   39.608583459  115.892491589    91.0838   6  10   0.4805   0.3191   0.9899  -0.2073   0.3074  -0.5409   0.00    0.0
2018/09/07 00:14:00.000   39.608583548  115.892491590    91.0660   6  10   0.4723   0.3137   0.9737  -0.2043   0.3027  -0.5321   0.00    0.0
2018/09/07 00:14:30.000   39.608583537  115.892491566    91.0710   6  10   0.4644   0.3086   0.9583  -0.2014   0.2984  -0.5238   0.00    0.0
2018/09/07 00:15:00.000   39.608583486  115.892491501    91.0846   6  10   0.4570   0.3037   0.9436  -0.1986   0.2942  -0.5158   0.00    0.0
2018/09/07 00:15:30.000   39.608583422  115.892491425    91.0979   6  10   0.4499   0.2991   0.9296  -0.1960   0.2902  -0.5082   0.00    0.0
2018/09/07 00:16:00.000   39.608583445  115.892491404    91.0906   6  10   0.4431   0.2947   0.9162  -0.1935   0.2864  -0.5009   0.00    0.0
2018/09/07 00:16:30.000   39.608583356  115.892491485    91.1083   6  10   0.4366   0.2905   0.9034  -0.1911   0.2827  -0.4940   0.00    0.0
2018/09/07 00:17:00.000   39.608583407  115.892491519    91.0922   6  10   0.4303   0.2864   0.8910  -0.1888   0.2792  -0.4873   0.00    0.0
2018/09/07 00:17:30.000   39.608583416  115.892491519    91.0890   6  10   0.4243   0.2826   0.8792  -0.1866   0.2758  -0.4809   0.00    0.0
2018/09/07 00:18:00.000   39.608583479  115.892491549    91.0678   6  10   0.4186   0.2789   0.8678  -0.1845   0.2726  -0.4747   0.00    0.0
2018/09/07 00:18:30.000   39.608583452  115.892491534    91.0580   6  10   0.4131   0.2753   0.8569  -0.1825   0.2695  -0.4687   0.00    0.0
2018/09/07 00:19:00.000   39.608583582  115.892491567    91.0413   6  10   0.4078   0.2719   0.8463  -0.1805   0.2665  -0.4630   0.00    0.0
2018/09/07 00:19:30.000   39.608583587  115.892491706    91.0454   6  10   0.4026   0.2686   0.8361  -0.1787   0.2636  -0.4574   0.00    0.0
2018/09/07 00:20:00.000   39.608583646  115.892491828    91.0450   6  10   0.3977   0.2655   0.8262  -0.1769   0.2608  -0.4520   0.00    0.0
2018/09/07 00:20:30.000   39.608583699  115.892491867    91.0254   6  10   0.3929   0.2624   0.8167  -0.1751   0.2581  -0.4469   0.00    0.0
2018/09/07 00:21:00.000   39.608583726  115.892491900    91.0105   6  10   0.3883   0.2595   0.8074  -0.1734   0.2555  -0.4418   0.00    0.0
2018/09/07 00:21:30.000   39.608583766  115.892491893    90.9882   6  10   0.3839   0.2567   0.7984  -0.1718   0.2529  -0.4369   0.00    0.0
2018/09/07 00:22:00.000   39.608583813  115.892491936    90.9797   6  10   0.3795   0.2540   0.7897  -0.1703   0.2504  -0.4322   0.00    0.0
2018/09/07 00:22:30.000   39.608583883  115.892491980    90.9695   6  10   0.3754   0.2513   0.7813  -0.1687   0.2481  -0.4276   0.00    0.0
2018/09/07 00:23:00.000   39.608584028  115.892491968    90.9384   6  10   0.3713   0.2488   0.7731  -0.1673   0.2457  -0.4231   0.00    0.0
2018/09/07 00:23:30.000   39.608584082  115.892491965    90.9336   6  10   0.3674   0.2463   0.7651  -0.1658   0.2435  -0.4187   0.00    0.0
2018/09/07 00:24:00.000   39.608584102  115.892491966    90.9177   6  10   0.3635   0.2439   0.7573  -0.1645   0.2413  -0.4145   0.00    0.0
2018/09/07 00:24:30.000   39.608584110  115.892492031    90.9120   6  10   0.3598   0.2416   0.7497  -0.1631   0.2391  -0.4103   0.00    0.0
2018/09/07 00:25:00.000   39.608584135  115.892492090    90.9100   6  10   0.3562   0.2394   0.7423  -0.1618   0.2370  -0.4063   0.00    0.0
2018/09/07 00:25:30.000   39.608584273  115.892492149    90.8807   6  10   0.3527   0.2372   0.7350  -0.1605   0.2350  -0.4023   0.00    0.0
2018/09/07 00:26:00.000   39.608584283  115.892492294    90.8835   6  10   0.3493   0.2351   0.7280  -0.1593   0.2330  -0.3985   0.00    0.0
2018/09/07 00:26:30.000   39.608584310  115.892492366    90.8822   6  10   0.3459   0.2331   0.7211  -0.1580   0.2310  -0.3947   0.00    0.0
2018/09/07 00:27:00.000   39.608584396  115.892492424    90.8632   6  10   0.3427   0.2311   0.7143  -0.1569   0.2291  -0.3910   0.00    0.0
2018/09/07 00:27:30.000   39.608584491  115.892492428    90.8375   6  10   0.3395   0.2291   0.7077  -0.1557   0.2272  -0.3874   0.00    0.0
2018/09/07 00:28:00.000   39.608584528  115.892492505    90.8199   6  10   0.3364   0.2272   0.7013  -0.1546   0.2254  -0.3839   0.00    0.0
2018/09/07 00:28:30.000   39.608584606  115.892492527    90.8053   6  10   0.3334   0.2254   0.6949  -0.1535   0.2236  -0.3804   0.00    0.0
2018/09/07 00:29:00.000   39.608584643  115.892492566    90.7975   6  10   0.3305   0.2236   0.6888  -0.1524   0.2218  -0.3770   0.00    0.0
2018/09/07 00:29:30.000   39.608584695  115.892492622    90.7831   6  10   0.3276   0.2219   0.6827  -0.1513   0.2201  -0.3737   0.00    0.0
2018/09/07 00:30:00.000   39.608584732  115.892492682    90.7725   6  10   0.3248   0.2202   0.6767  -0.1503   0.2184  -0.3704   0.00    0.0
2018/09/07 00:30:30.000   39.608584762  115.892492735    90.7545   6  10   0.3220   0.2185   0.6709  -0.1493   0.2168  -0.3672   0.00    0.0
2018/09/07 00:31:00.000   39.608584818  115.892492803    90.7419   6  10   0.3193   0.2169   0.6651  -0.1483   0.2151  -0.3641   0.00    0.0
2018/09/07 00:31:30.000   39.608584882  115.892492837    90.7187   6  10   0.3167   0.2153   0.6595  -0.1473   0.2135  -0.3610   0.00    0.0
2018/09/07 00:32:00.000   39.608584924  115.892492901    90.6986   6  10   0.3141   0.2138   0.6539  -0.1464   0.2119  -0.3580   0.00    0.0
2018/09/07 00:32:30.000   39.608584982  115.892492942    90.6782   6   9   0.3119   0.2123   0.6500  -0.1452   0.2100  -0.3559   0.00    0.0
2018/09/07 00:33:00.000   39.608585066  115.892493030    90.6523   6   9   0.3098   0.2109   0.6460  -0.1441   0.2081  -0.3538   0.00    0.0
2018/09/07 00:33:30.000   39.608585142  115.892493078    90.6221   6   9   0.3077   0.2095   0.6421  -0.1431   0.2063  -0.3517   0.00    0.0
2018/09/07 00:34:00.000   39.608585269  115.892493112    90.5970   6   8   0.3058   0.2082   0.6387  -0.1419   0.2047  -0.3494   0.00    0.0
2018/09/07 00:34:30.000   39.608585378  115.892493183    90.5742   6   8   0.3039   0.2069   0.6353  -0.1407   0.2032  -0.3472   0.00    0.0
2018/09/07 00:35:00.000   39.608585456  115.892493257    90.5487   6   8   0.3020   0.2056   0.6320  -0.1396   0.2017  -0.3449   0.00    0.0
2018/09/07 00:35:30.000   39.608585564  115.892493336    90.5222   6   8   0.3001   0.2044   0.6286  -0.1385   0.2002  -0.3426   0.00    0.0
2018/09/07 00:36:00.000   39.608585654  115.892493383    90.4959   6   8   0.2982   0.2031   0.6253  -0.1374   0.1987  -0.3404   0.00    0.0
2018/09/07 00:36:30.000   39.608585749  115.892493474    90.4775   6   8   0.2964   0.2020   0.6220  -0.1363   0.1973  -0.3381   0.00    0.0
2018/09/07 00:37:00.000   39.608585873  115.892493534    90.4454   6   8   0.2946   0.2008   0.6187  -0.1353   0.1959  -0.3359   0.00    0.0
2018/09/07 00:37:30.000   39.608586012  115.892493577    90.4143   6   9   0.2921   0.1988   0.6124  -0.1329   0.1916  -0.3318   0.00    0.0
2018/09/07 00:38:00.000   39.608586231  115.892493476    90.3549   6   9   0.2896   0.1968   0.6063  -0.1305   0.1875  -0.3278   0.00    0.0
2018/09/07 00:38:30.000   39.608586381  115.892493445    90.3141   6   9   0.2872   0.1950   0.6004  -0.1283   0.1835  -0.3240   0.00    0.0
2018/09/07 00:39:00.000   39.608586518  115.892493460    90.2801   6   9   0.2849   0.1932   0.5947  -0.1261   0.1797  -0.3202   0.00    0.0
2018/09/07 00:39:30.000   39.608586631  115.892493519    90.2527   6   9   0.2826   0.1914   0.5891  -0.1240   0.1760  -0.3166   0.00    0.0
2018/09/07 00:40:00.000   39.608586726  115.892493571    90.2300   6   9   0.2804   0.1897   0.5837  -0.1220   0.1724  -0.3130   0.00    0.0
2018/09/07 00:40:30.000   39.608586923  115.892493537    90.1756   6   9   0.2782   0.1881   0.5785  -0.1201   0.1689  -0.3096   0.00    0.0
2018/09/07 00:41:00.000   39.608587053  115.892493541    90.1383   6   9   0.2761   0.1865   0.5733  -0.1182   0.1656  -0.3062   0.00    0.0
2018/09/07 00:41:30.000   39.608587182  115.892493553    90.1067   6   9   0.2740   0.1850   0.5683  -0.1164   0.1624  -0.3029   0.00    0.0
2018/09/07 00:42:00.000   39.608587285  115.892493565    90.0749   6   9   0.2720   0.1835   0.5635  -0.1147   0.1592  -0.2997   0.00    0.0
2018/09/07 00:42:30.000   39.608587409  115.892493587    90.0413   6   9   0.2700   0.1820   0.5587  -0.1130   0.1562  -0.2965   0.00    0.0
2018/09/07 00:43:00.000   39.608587500  115.892493608    90.0139   6   9   0.2680   0.1806   0.5541  -0.1114   0.1533  -0.2935   0.00    0.0
2018/09/07 00:43:30.000   39.608587609  115.892493646    89.9854   6   9   0.2661   0.1793   0.5495  -0.1099   0.1504  -0.2905   0.00    0.0
2018/09/07 00:44:00.000   39.608587737  115.892493664    89.9535   6   9   0.2642   0.1779   0.5451  -0.1084   0.1477  -0.2875   0.00    0.0
2018/09/07 00:44:30.000   39.608587854  115.892493715    89.9242   6   9   0.2624   0.1766   0.5408  -0.1069   0.1450  -0.2847   0.00    0.0
2018/09/07 00:45:00.000   39.608587947  115.892493771    89.9084   6   9   0.2606   0.1754   0.5365  -0.1055   0.1424  -0.2819   0.00    0.0
2018/09/07 00:45:30.000   39.608588024  115.892493802    89.8883   6   9   0.2588   0.1742   0.5324  -0.1042   0.1399  -0.2791   0.00    0.0
2018/09/07 00:46:00.000   39.608588164  115.892493839    89.8612   6   9   0.2571   0.1730   0.5283  -0.1028   0.1374  -0.2764   0.00    0.0
2018/09/07 00:46:30.000   39.608588243  115.892493907    89.8412   6   9   0.2554   0.1718   0.5243  -0.1016   0.1350  -0.2737   0.00    0.0
2018/09/07 00:47:00.000   39.608588364  115.892493910    89.8092   6   9   0.2537   0.1707   0.5204  -0.1003   0.1327  -0.2711   0.00    0.0
2018/09/07 00:47:30.000   39.608588514  115.892493936    89.7719   6   9   0.2520   0.1695   0.5165  -0.0992   0.1305  -0.2686   0.00    0.0
2018/09/07 00:48:00.000   39.608588631  115.892493986    89.7462   6   9   0.2504   0.1685   0.5127  -0.0980   0.1283  -0.2660   0.00    0.0
2018/09/07 00:48:30.000   39.608588739  115.892494014    89.7208   6   9   0.2488   0.1674   0.5090  -0.0969   0.1262  -0.2636   0.00    0.0
2018/09/07 00:49:00.000   39.608588867  115.892494004    89.6863   6   9   0.2472   0.1664   0.5054  -0.0958   0.1241  -0.2611   0.00    0.0
2018/09/07 00:49:30.000   39.608588999  115.892494026    89.6544   6   9   0.2457   0.1653   0.5018  -0.0948   0.1221  -0.2588   0.00    0.0
2018/09/07 00:50:00.000   39.608589074  115.892494076    89.6323   6   9   0.2442   0.1644   0.4983  -0.0937   0.1201  -0.2564   0.00    0.0
2018/09/07 00:50:30.000   39.608589159  115.892494103    89.6118   6   9   0.2427   0.1634   0.4948  -0.0928   0.1182  -0.2541   0.00    0.0
2018/09/07 00:51:00.000   39.608589250  115.892494138    89.5914   6   9   0.2412   0.1624   0.4914  -0.0918   0.1164  -0.2518   0.00    0.0
2018/09/07 00:51:30.000   39.608589339  115.892494195    89.5686   6   9   0.2397   0.1615   0.4881  -0.0909   0.1146  -0.2496   0.00    0.0
2018/09/07 00:52:00.000   39.608589406  115.892494249    89.5558   6   9   0.2383   0.1606   0.4848  -0.0900   0.1128  -0.2474   0.00    0.0
2018/09/07 00:52:30.000   39.608589531  115.892494254    89.5286   6   9   0.2369   0.1597   0.4815  -0.0891   0.1111  -0.2452   0.00    0.0
2018/09/07 00:53:00.000   39.608589643  115.892494289    89.5069   6   9   0.2355   0.1588   0.4783  -0.0883   0.1095  -0.2431   0.00    0.0
2018/09/07 00:53:30.000   39.608589759  115.892494326    89.4821   6   9   0.2341   0.1580   0.4751  -0.0874   0.1078  -0.2410   0.00    0.0
2018/09/07 00:54:00.000   39.608589867  115.892494320    89.4514   6   9   0.2328   0.1571   0.4720  -0.0867   0.1063  -0.2389   0.00    0.0
2018/09/07 00:54:30.000   39.608589939  115.892494363    89.4320   6   9   0.2315   0.1563   0.4690  -0.0859   0.1047  -0.2369   0.00    0.0
2018/09/07 00:55:00.000   39.608590025  115.892494406    89.4130   6   9   0.2302   0.1555   0.4659  -0.0851   0.1032  -0.2349   0.00    0.0
2018/09/07 00:55:30.000   39.608590128  115.892494431    89.3891   6   9   0.2289   0.1547   0.4629  -0.0844   0.1018  -0.2329   0.00    0.0
2018/09/07 00:56:00.000   39.608590199  115.892494420    89.3593   6  10   0.2276   0.1538   0.4598  -0.0838   0.0999  -0.2310   0.00    0.0
2018/09/07 00:56:30.000   39.608590276  115.892494418    89.3289   6  10   0.2263   0.1530   0.4566  -0.0832   0.0981  -0.2292   0.00    0.0
2018/09/07 00:57:00.000   39.608590360  115.892494401    89.3003   6  10   0.2250   0.1521   0.4535  -0.0827   0.0964  -0.2274   0.00    0.0
2018/09/07 00:57:30.000   39.608590435  115.892494389    89.2725   6  10   0.2238   0.1513   0.4505  -0.0822   0.0947  -0.2257   0.00    0.0
2018/09/07 00:58:00.000   39.608590491  115.892494381    89.2496   6  10   0.2226   0.1505   0.4475  -0.0817   0.0930  -0.2239   0.00    0.0
2018/09/07 00:58:30.000   39.608590550  115.892494367    89.2220   6  10   0.2213   0.1497   0.4446  -0.0812   0.0914  -0.2222   0.00    0.0
2018/09/07 00:59:00.000   39.608590629  115.892494355    89.1938   6  10   0.2201   0.1489   0.4417  -0.0807   0.0898  -0.2205   0.00    0.0
2018/09/07 00:59:30.000   39.608590678  115.892494330    89.1686   6  10   0.2190   0.1481   0.4388  -0.0802   0.0883  -0.2188   0.00    0.0
2018/09/07 01:00:00.000   39.608590746  115.892494328    89.1443   6  10   0.2178   0.1474   0.4361  -0.0798   0.0868  -0.2172   0.00    0.0
2018/09/07 01:00:30.000   39.608590835  115.892494343    89.1171   6  10   0.2167   0.1467   0.4334  -0.0795   0.0854  -0.2156   0.00    0.0
2018/09/07 01:01:00.000   39.608590894  115.892494346    89.0915   6  10   0.2156   0.1461   0.4307  -0.0792   0.0839  -0.2139   0.00    0.0
2018/09/07 01:01:30.000   39.608590997  115.892494341    89.0536   6  10   0.2145   0.1454   0.4281  -0.0788   0.0826  -0.2124   0.00    0.0
2018/09/07 01:02:00.000   39.608591066  115.892494345    89.0251   6  10   0.2134   0.1448   0.4255  -0.0785   0.0812  -0.2108   0.00    0.0
2018/09/07 01:02:30.000   39.608591136  115.892494366    88.9955   6  10   0.2123   0.1441   0.4229  -0.0782   0.0799  -0.2092   0.00    0.0
2018/09/07 01:03:00.000   39.608591211  115.892494409    88.9725   6  10   0.2112   0.1435   0.4204  -0.0779   0.0786  -0.2077   0.00    0.0
2018/09/07 01:03:30.000   39.608591260  115.892494415    88.9469   6  10   0.2102   0.1429   0.4179  -0.0776   0.0774  -0.2062   0.00    0.0
2018/09/07 01:04:00.000   39.608591341  115.892494441    88.9202   6  10   0.2091   0.1423   0.4154  -0.0773   0.0762  -0.2047   0.00    0.0
2018/09/07 01:04:30.000   39.608591434  115.892494436    88.8907   6  10   0.2081   0.1417   0.4130  -0.0770   0.0750  -0.2032   0.00    0.0
2018/09/07 01:05:00.000   39.608591515  115.892494438    88.8641   6  10   0.2071   0.1411   0.4106  -0.0768   0.0738  -0.2017   0.00    0.0
2018/09/07 01:05:30.000   39.608591586  115.892494451    88.8435   6  10   0.2061   0.1405   0.4082  -0.0765   0.0727  -0.2002   0.00    0.0
2018/09/07 01:06:00.000   39.608591636  115.892494495    88.8257   6  10   0.2051   0.1399   0.4059  -0.0762   0.0716  -0.1988   0.00    0.0
2018/09/07 01:06:30.000   39.608591705  115.892494526    88.8044   6  10   0.2041   0.1394   0.4036  -0.0760   0.0706  -0.1974   0.00    0.0
2018/09/07 01:07:00.000   39.608591748  115.892494548    88.7846   6  10   0.2031   0.1388   0.4013  -0.0758   0.0695  -0.1960   0.00    0.0
2018/09/07 01:07:30.000   39.608591803  115.892494578    88.7651   6  10   0.2022   0.1383   0.3991  -0.0755   0.0685  -0.1946   0.00    0.0
2018/09/07 01:08:00.000   39.608591865  115.892494602    88.7401   6  10   0.2012   0.1377   0.3968  -0.0753   0.0675  -0.1932   0.00    0.0
2018/09/07 01:08:30.000   39.608591930  115.892494614    88.7125   6  10   0.2003   0.1372   0.3946  -0.0751   0.0666  -0.1918   0.00    0.0
2018/09/07 01:09:00.000   39.608591971  115.892494631    88.6917   6  10   0.1994   0.1367   0.3925  -0.0749   0.0656  -0.1905   0.00    0.0
2018/09/07 01:09:30.000   39.608592026  115.892494657    88.6708   6  10   0.1985   0.1362   0.3903  -0.0746   0.0647  -0.1891   0.00    0.0
2018/09/07 01:10:00.000   39.608592073  115.892494683    88.6521   6  10   0.1976   0.1357   0.3882  -0.0744   0.0638  -0.1878   0.00    0.0
2018/09/07 01:10:30.000   39.608592134  115.892494721    88.6307   6  10   0.1967   0.1352   0.3861  -0.0742   0.0630  -0.1865   0.00    0.0
2018/09/07 01:11:00.000   39.608592174  115.892494741    88.6079   6  10   0.1958   0.1347   0.3840  -0.0740   0.0622  -0.1852   0.00    0.0
2018/09/07 01:11:30.000   39.608592237  115.892494764    88.5893   6  10   0.1949   0.1342   0.3820  -0.0739   0.0614  -0.1839   0.00    0.0
2018/09/07 01:12:00.000   39.608592293  115.892494789    88.5721   6  10   0.1941   0.1337   0.3800  -0.0737   0.0606  -0.1827   0.00    0.0
2018/09/07 01:12:30.000   39.608592314  115.892494807    88.5615   6  10   0.1932   0.1332   0.3780  -0.0735   0.0599  -0.1814   0.00    0.0
2018/09/07 01:13:00.000   39.608592385  115.892494832    88.5413   6  10   0.1924   0.1328   0.3760  -0.0733   0.0591  -0.1802   0.00    0.0
2018/09/07 01:13:30.000   39.608592442  115.892494857    88.5225   6  10   0.1915   0.1323   0.3740  -0.0731   0.0584  -0.1790   0.00    0.0
2018/09/07 01:14:00.000   39.608592504  115.892494881    88.5026   6  10   0.1907   0.1319   0.3721  -0.0730   0.0578  -0.1778   0.00    0.0
2018/09/07 01:14:30.000   39.608592559  115.892494893    88.4858   6  10   0.1899   0.1314   0.3702  -0.0728   0.0571  -0.1766   0.00    0.0
2018/09/07 01:15:00.000   39.608592606  115.892494914    88.4698   6  10   0.1891   0.1310   0.3683  -0.0727   0.0565  -0.1754   0.00    0.0
2018/09/07 01:15:30.000   39.608592632  115.892494949    88.4579   6  10   0.1883   0.1306   0.3664  -0.0725   0.0559  -0.1742   0.00    0.0
2018/09/07 01:16:00.000   39.608592683  115.892494949    88.4428   6  10   0.1875   0.1301   0.3646  -0.0724   0.0553  -0.1730   0.00    0.0
2018/09/07 01:16:30.000   39.608592721  115.892494967    88.4268   6  10   0.1867   0.1297   0.3627  -0.0722   0.0547  -0.1719   0.00    0.0
2018/09/07 01:17:00.000   39.608592775  115.892494994    88.4124   6  10   0.1860   0.1293   0.3609  -0.0721   0.0542  -0.1707   0.00    0.0
2018/09/07 01:17:30.000   39.608592797  115.892495011    88.3992   6  10   0.1852   0.1289   0.3591  -0.0719   0.0537  -0.1696   0.00    0.0
2018/09/07 01:18:00.000   39.608592816  115.892495033    88.3899   6  10   0.1845   0.1285   0.3573  -0.0718   0.0532  -0.1685   0.00    0.0
2018/09/07 01:18:30.000   39.608592840  115.892495061    88.3774   6  10   0.1837   0.1281   0.3556  -0.0716   0.0527  -0.1674   0.00    0.0
2018/09/07 01:19:00.000   39.608592878  115.892495088    88.3666   6  10   0.1830   0.1277   0.3538  -0.0715   0.0522  -0.1663   0.00    0.0
2018/09/07 01:19:30.000   39.608592908  115.892495118    88.3519   6  10   0.1823   0.1273   0.3521  -0.0714   0.0518  -0.1652   0.00    0.0
2018/09/07 01:20:00.000   39.608592941  115.892495148    88.3417   6  10   0.1816   0.1269   0.3504  -0.0712   0.0513  -0.1642   0.00    0.0
2018/09/07 01:20:30.000   39.608592976  115.892495176    88.3268   6  10   0.1809   0.1265   0.3487  -0.0711   0.0509  -0.1631   0.00    0.0
2018/09/07 01:21:00.000   39.608593018  115.892495210    88.3140   6  10   0.1802   0.1261   0.3470  -0.0710   0.0505  -0.1621   0.00    0.0
2018/09/07 01:21:30.000   39.608593070  115.892495250    88.3057   6  10   0.1795   0.1257   0.3454  -0.0709   0.0502  -0.1610   0.00    0.0
2018/09/07 01:22:00.000   39.608593118  115.892495276    88.2915   6  10   0.1788   0.1254   0.3437  -0.0707   0.0498  -0.1600   0.00    0.0
2018/09/07 01:22:30.000   39.608593141  115.892495295    88.2796   6  10   0.1781   0.1250   0.3421  -0.0706   0.0495  -0.1590   0.00    0.0
2018/09/07 01:23:00.000   39.608593183  115.892495331    88.2659   6   9   0.1775   0.1247   0.3406  -0.0704   0.0492  -0.1579   0.00    0.0
2018/09/07 01:23:30.000   39.608593211  115.892495351    88.2553   6   9   0.1769   0.1243   0.3391  -0.0703   0.0490  -0.1568   0.00    0.0
2018/09/07 01:24:00.000   39.608593244  115.892495380    88.2433   6   9   0.1764   0.1240   0.3376  -0.0701   0.0487  -0.1557   0.00    0.0
2018/09/07 01:24:30.000   39.608593275  115.892495396    88.2317   6   9   0.1758   0.1236   0.3362  -0.0699   0.0485  -0.1546   0.00    0.0
2018/09/07 01:25:00.000   39.608593304  115.892495417    88.2210   6   9   0.1752   0.1233   0.3347  -0.0698   0.0483  -0.1535   0.00    0.0
2018/09/07 01:25:30.000   39.608593321  115.892495407    88.2153   6   8   0.1748   0.1230   0.3337  -0.0695   0.0479  -0.1527   0.00    0.0
2018/09/07 01:26:00.000   39.608593328  115.892495410    88.2089   6   8   0.1743   0.1226   0.3327  -0.0693   0.0476  -0.1520   0.00    0.0
2018/09/07 01:26:30.000   39.608593338  115.892495418    88.2054   6   8   0.1738   0.1223   0.3317  -0.0691   0.0472  -0.1512   0.00    0.0
2018/09/07 01:27:00.000   39.608593337  115.892495428    88.2038   6   8   0.1734   0.1220   0.3307  -0.0689   0.0468  -0.1504   0.00    0.0
2018/09/07 01:27:30.000   39.608593342  115.892495440    88.1996   6   8   0.1729   0.1217   0.3297  -0.0687   0.0465  -0.1497   0.00    0.0
2018/09/07 01:28:00.000   39.608593354  115.892495444    88.1937   6   8   0.1725   0.1214   0.3287  -0.0685   0.0462  -0.1489   0.00    0.0
2018/09/07 01:28:30.000   39.608593367  115.892495456    88.1897   6   8   0.1720   0.1211   0.3277  -0.0683   0.0459  -0.1482   0.00    0.0
2018/09/07 01:29:00.000   39.608593372  115.892495469    88.1865   6   8   0.1716   0.1208   0.3268  -0.0681   0.0456  -0.1474   0.00    0.0
2018/09/07 01:29:30.000   39.608593379  115.892495473    88.1846   6   8   0.1711   0.1205   0.3258  -0.0680   0.0453  -0.1467   0.00    0.0
2018/09/07 01:30:00.000   39.608593394  115.892495474    88.1782   6   8   0.1707   0.1202   0.3248  -0.0678   0.0450  -0.1459   0.00    0.0
2018/09/07 01:30:30.000   39.608593414  115.892495470    88.1725   6   8   0.1702   0.1199   0.3239  -0.0676   0.0448  -0.1452   0.00    0.0
2018/09/07 01:31:00.000   39.608593423  115.892495476    88.1673   6   8   0.1698   0.1196   0.3229  -0.0674   0.0446  -0.1445   0.00    0.0
2018/09/07 01:31:30.000   39.608593442  115.892495476    88.1620   6   8   0.1694   0.1193   0.3220  -0.0672   0.0443  -0.1437   0.00    0.0
2018/09/07 01:32:00.000   39.608593459  115.892495493    88.1579   6   8   0.1689   0.1190   0.3210  -0.0671   0.0441  -0.1430   0.00    0.0
2018/09/07 01:32:30.000   39.608593471  115.892495491    88.1532   6   8   0.1685   0.1187   0.3201  -0.0669   0.0439  -0.1423   0.00    0.0
2018/09/07 01:33:00.000   39.608593465  115.892495508    88.1512   6   8   0.1681   0.1185   0.3192  -0.0667   0.0437  -0.1416   0.00    0.0
2018/09/07 01:33:30.000   39.608593471  115.892495507    88.1484   6   8   0.1676   0.1182   0.3182  -0.0666   0.0436  -0.1408   0.00    0.0
2018/09/07 01:34:00.000   39.608593479  115.892495518    88.1445   6   8   0.1672   0.1179   0.3173  -0.0664   0.0434  -0.1401   0.00    0.0
2018/09/07 01:34:30.000   39.608593497  115.892495522    88.1394   6   8   0.1668   0.1176   0.3164  -0.0663   0.0433  -0.1394   0.00    0.0
2018/09/07 01:35:00.000   39.608593511  115.892495531    88.1355   6   8   0.1663   0.1174   0.3155  -0.0661   0.0431  -0.1387   0.00    0.0
2018/09/07 01:35:30.000   39.608593522  115.892495539    88.1307   6   8   0.1659   0.1171   0.3146  -0.0660   0.0430  -0.1380   0.00    0.0
2018/09/07 01:36:00.000   39.608593530  115.892495553    88.1277   6   8   0.1655   0.1168   0.3137  -0.0658   0.0429  -0.1373   0.00    0.0
2018/09/07 01:36:30.000   39.608593540  115.892495566    88.1242   6   8   0.1651   0.1166   0.3128  -0.0657   0.0428  -0.1366   0.00    0.0
2018/09/07 01:37:00.000   39.608593534  115.892495578    88.1235   6   8   0.1647   0.1163   0.3119  -0.0655   0.0427  -0.1359   0.00    0.0
2018/09/07 01:37:30.000   39.608593552  115.892495579    88.1187   6   8   0.1643   0.1161   0.3110  -0.0654   0.0426  -0.1352   0.00    0.0
2018/09/07 01:38:00.000   39.608593563  115.892495583    88.1151   6   8   0.1639   0.1158   0.3101  -0.0652   0.0425  -0.1345   0.00    0.0
2018/09/07 01:38:30.000   39.608593559  115.892495596    88.1150   6   8   0.1634   0.1155   0.3093  -0.0651   0.0425  -0.1339   0.00    0.0
2018/09/07 01:39:00.000   39.608593569  115.892495606    88.1127   6   8   0.1630   0.1153   0.3084  -0.0649   0.0424  -0.1332   0.00    0.0
2018/09/07 01:39:30.000   39.608593581  115.892495613    88.1092   6   8   0.1626   0.1150   0.3075  -0.0648   0.0424  -0.1325   0.00    0.0
2018/09/07 01:40:00.000   39.608593597  115.892495614    88.1048   6   8   0.1622   0.1148   0.3067  -0.0647   0.0423  -0.1318   0.00    0.0
2018/09/07 01:40:30.000   39.608593607  115.892495617    88.1022   6   8   0.1618   0.1146   0.3058  -0.0645   0.0423  -0.1312   0.00    0.0
2018/09/07 01:41:00.000   39.608593626  115.892495621    88.0985   6   8   0.1614   0.1143   0.3050  -0.0644   0.0423  -0.1305   0.00    0.0
2018/09/07 01:41:30.000   39.608593630  115.892495619    88.0962   6   8   0.1610   0.1141   0.3041  -0.0643   0.0423  -0.1299   0.00    0.0
2018/09/07 01:42:00.000   39.608593640  115.892495611    88.0932   6   8   0.1607   0.1138   0.3033  -0.0642   0.0423  -0.1292   0.00    0.0
2018/09/07 01:42:30.000   39.608593649  115.892495619    88.0905   6   8   0.1603   0.1136   0.3024  -0.0640   0.0423  -0.1286   0.00    0.0
2018/09/07 01:43:00.000   39.608593657  115.892495629    88.0863   6   8   0.1599   0.1134   0.3016  -0.0639   0.0423  -0.1279   0.00    0.0
2018/09/07 01:43:30.000   39.608593662  115.892495630    88.0836   6   8   0.1595   0.1131   0.3008  -0.0638   0.0424  -0.1273   0.00    0.0
2018/09/07 01:44:00.000   39.608593667  115.892495638    88.0821   6   8   0.1591   0.1129   0.3000  -0.0637   0.0424  -0.1266   0.00    0.0
2018/09/07 01:44:30.000   39.608593672  115.892495647    88.0791   6   8   0.1587   0.1127   0.2991  -0.0635   0.0424  -0.1260   0.00    0.0
2018/09/07 01:45:00.000   39.608593694  115.892495654    88.0749   6   8   0.1583   0.1125   0.2983  -0.0634   0.0425  -0.1254   0.00    0.0
2018/09/07 01:45:30.000   39.608593701  115.892495660    88.0726   6   8   0.1580   0.1122   0.2975  -0.0633   0.0425  -0.1247   0.00    0.0
2018/09/07 01:46:00.000   39.608593710  115.892495674    88.0708   6   8   0.1576   0.1120   0.2967  -0.0632   0.0426  -0.1241   0.00    0.0
2018/09/07 01:46:30.000   39.608593717  115.892495682    88.0686   6   8   0.1572   0.1118   0.2959  -0.0631   0.0426  -0.1235   0.00    0.0
2018/09/07 01:47:00.000   39.608593731  115.892495686    88.0661   6   8   0.1568   0.1116   0.2951  -0.0629   0.0427  -0.1229   0.00    0.0
2018/09/07 01:47:30.000   39.608593755  115.892495695    88.0614   6   8   0.1565   0.1114   0.2943  -0.0628   0.0428  -0.1223   0.00    0.0
2018/09/07 01:48:00.000   39.608593767  115.892495706    88.0602   6   8   0.1561   0.1111   0.2935  -0.0627   0.0428  -0.1217   0.00    0.0
2018/09/07 01:48:30.000   39.608593776  115.892495707    88.0597   6   8   0.1557   0.1109   0.2928  -0.0626   0.0429  -0.1211   0.00    0.0
2018/09/07 01:49:00.000   39.608593792  115.892495719    88.0568   6   8   0.1553   0.1107   0.2920  -0.0625   0.0430  -0.1205   0.00    0.0
2018/09/07 01:49:30.000   39.608593809  115.892495732    88.0527   6   8   0.1550   0.1105   0.2912  -0.0624   0.0431  -0.1199   0.00    0.0
2018/09/07 01:50:00.000   39.608593816  115.892495727    88.0517   6   8   0.1546   0.1103   0.2904  -0.0623   0.0432  -0.1193   0.00    0.0
2018/09/07 01:50:30.000   39.608593821  115.892495734    88.0510   6   8   0.1543   0.1101   0.2897  -0.0622   0.0433  -0.1187   0.00    0.0
2018/09/07 01:51:00.000   39.608593834  115.892495743    88.0486   6   8   0.1539   0.1099   0.2889  -0.0621   0.0434  -0.1182   0.00    0.0
2018/09/07 01:51:30.000   39.608593844  115.892495747    88.0471   6   8   0.1535   0.1097   0.2882  -0.0619   0.0435  -0.1176   0.00    0.0
2018/09/07 01:52:00.000   39.608593859  115.892495761    88.0440   6   8   0.1532   0.1095   0.2874  -0.0618   0.0436  -0.1170   0.00    0.0
2018/09/07 01:52:30.000   39.608593876  115.892495758    88.0422   6   8   0.1528   0.1093   0.2867  -0.0617   0.0437  -0.1165   0.00    0.0
2018/09/07 01:53:00.000   39.608593885  115.892495771    88.0415   6   8   0.1525   0.1091   0.2859  -0.0616   0.0439  -0.1159   0.00    0.0
2018/09/07 01:53:30.000   39.608593899  115.892495774    88.0399   6   8   0.1521   0.1089   0.2852  -0.0615   0.0440  -0.1154   0.00    0.0
2018/09/07 01:54:00.000   39.608593915  115.892495773    88.0384   6   8   0.1518   0.1087   0.2844  -0.0614   0.0441  -0.1148   0.00    0.0
2018/09/07 01:54:30.000   39.608593931  115.892495789    88.0353   6   8   0.1514   0.1085   0.2837  -0.0613   0.0442  -0.1143   0.00    0.0
2018/09/07 01:55:00.000   39.608593945  115.892495798    88.0343   6   8   0.1511   0.1083   0.2830  -0.0612   0.0444  -0.1137   0.00    0.0
2018/09/07 01:55:30.000   39.608593961  115.892495813    88.0325   6   8   0.1507   0.1082   0.2823  -0.0611   0.0445  -0.1132   0.00    0.0
2018/09/07 01:56:00.000   39.608593977  115.892495818    88.0305   6   8   0.1504   0.1080   0.2815  -0.0610   0.0446  -0.1127   0.00    0.0
2018/09/07 01:56:30.000   39.608594000  115.892495820    88.0267   6   8   0.1501   0.1078   0.2808  -0.0609   0.0448  -0.1121   0.00    0.0
2018/09/07 01:57:00.000   39.608594016  115.892495811    88.0253   6   8   0.1497   0.1076   0.2801  -0.0608   0.0449  -0.1116   0.00    0.0
2018/09/07 01:57:30.000   39.608594036  115.892495808    88.0227   6   8   0.1494   0.1074   0.2794  -0.0607   0.0450  -0.1111   0.00    0.0
2018/09/07 01:58:00.000   39.608594052  115.892495806    88.0210   6   8   0.1490   0.1072   0.2787  -0.0606   0.0452  -0.1106   0.00    0.0
2018/09/07 01:58:30.000   39.608594071  115.892495810    88.0192   6   8   0.1487   0.1071   0.2780  -0.0605   0.0453  -0.1101   0.00    0.0
2018/09/07 01:59:00.000   39.608594089  115.892495814    88.0164   6   8   0.1484   0.1069   0.2773  -0.0604   0.0455  -0.1096   0.00    0.0
2018/09/07 01:59:30.000   39.608594112  115.892495816    88.0140   6   8   0.1480   0.1067   0.2766  -0.0603   0.0456  -0.1091   0.00    0.0
2018/09/07 02:00:00.000   39.608594133  115.892495820    88.0112   6   8   0.1477   0.1065   0.2759  -0.0602   0.0457  -0.1086   0.00    0.0
2018/09/07 02:00:30.000   39.608594150  115.892495825    88.0099   6   8   0.1474   0.1064   0.2752  -0.0601   0.0459  -0.1081   0.00    0.0
2018/09/07 02:01:00.000   39.608594173  115.892495827    88.0085   6   8   0.1471   0.1062   0.2745  -0.0600   0.0460  -0.1076   0.00    0.0
2018/09/07 02:01:30.000   39.608594191  115.892495834    88.0065   6   8   0.1467   0.1060   0.2738  -0.0599   0.0462  -0.1072   0.00    0.0
2018/09/07 02:02:00.000   39.608594214  115.892495836    88.0047   6   8   0.1464   0.1059   0.2732  -0.0598   0.0463  -0.1067   0.00    0.0
2018/09/07 02:02:30.000   39.608594238  115.892495836    88.0025   6   8   0.1461   0.1057   0.2725  -0.0597   0.0465  -0.1062   0.00    0.0
2018/09/07 02:03:00.000   39.608594261  115.892495835    88.0006   6   8   0.1458   0.1055   0.2718  -0.0596   0.0466  -0.1057   0.00    0.0
2018/09/07 02:03:30.000   39.608594265  115.892495825    88.0009   6   7   0.1455   0.1054   0.2713  -0.0595   0.0466  -0.1053   0.00    0.0
2018/09/07 02:04:00.000   39.608594275  115.892495816    88.0006   6   7   0.1451   0.1052   0.2709  -0.0594   0.0466  -0.1049   0.00    0.0
2018/09/07 02:04:30.000   39.608594283  115.892495811    88.0010   6   7   0.1448   0.1051   0.2704  -0.0593   0.0466  -0.1045   0.00    0.0
2018/09/07 02:05:00.000   39.608594295  115.892495806    88.0005   6   7   0.1445   0.1049   0.2699  -0.0591   0.0466  -0.1041   0.00    0.0
2018/09/07 02:05:30.000   39.608594303  115.892495805    88.0007   6   7   0.1442   0.1048   0.2695  -0.0590   0.0466  -0.1037   0.00    0.0
2018/09/07 02:06:00.000   39.608594317  115.892495802    87.9998   6   7   0.1439   0.1046   0.2690  -0.0589   0.0466  -0.1033   0.00    0.0
2018/09/07 02:06:30.000   39.608594328  115.892495803    87.9997   6   7   0.1436   0.1045   0.2685  -0.0588   0.0466  -0.1029   0.00    0.0
2018/09/07 02:07:00.000   39.608594342  115.892495798    87.9993   6   7   0.1433   0.1044   0.2681  -0.0587   0.0466  -0.1025   0.00    0.0
2018/09/07 02:07:30.000   39.608594351  115.892495787    87.9999   6   7   0.1430   0.1042   0.2676  -0.0586   0.0466  -0.1021   0.00    0.0
2018/09/07 02:08:00.000   39.608594362  115.892495781    88.0002   6   7   0.1427   0.1041   0.2671  -0.0585   0.0466  -0.1017   0.00    0.0
2018/09/07 02:08:30.000   39.608594367  115.892495777    88.0014   6   7   0.1424   0.1039   0.2667  -0.0584   0.0466  -0.1013   0.00    0.0
2018/09/07 02:09:00.000   39.608594390  115.892495778    88.0000   6   7   0.1421   0.1038   0.2662  -0.0583   0.0466  -0.1009   0.00    0.0
2018/09/07 02:09:30.000   39.608594404  115.892495776    87.9996   6   7   0.1418   0.1037   0.2657  -0.0582   0.0466  -0.1005   0.00    0.0
2018/09/07 02:10:00.000   39.608594415  115.892495770    87.9995   6   7   0.1415   0.1035   0.2653  -0.0581   0.0467  -0.1002   0.00    0.0
2018/09/07 02:10:30.000   39.608594428  115.892495763    87.9989   6   7   0.1412   0.1034   0.2648  -0.0580   0.0467  -0.0998   0.00    0.0
2018/09/07 02:11:00.000   39.608594442  115.892495755    87.9989   6   7   0.1409   0.1033   0.2643  -0.0579   0.0467  -0.0994   0.00    0.0
2018/09/07 02:11:30.000   39.608594463  115.892495747    87.9976   6   7   0.1406   0.1031   0.2639  -0.0578   0.0467  -0.0990   0.00    0.0
2018/09/07 02:12:00.000   39.608594485  115.892495739    87.9966   6   7   0.1403   0.1030   0.2634  -0.0577   0.0468  -0.0987   0.00    0.0
2018/09/07 02:12:30.000   39.608594504  115.892495731    87.9963   6   7   0.1400   0.1029   0.2630  -0.0575   0.0468  -0.0983   0.00    0.0
2018/09/07 02:13:00.000   39.608594526  115.892495724    87.9947   6   7   0.1397   0.1027   0.2625  -0.0574   0.0468  -0.0980   0.00    0.0
2018/09/07 02:13:30.000   39.608594548  115.892495723    87.9932   6   7   0.1395   0.1026   0.2620  -0.0573   0.0469  -0.0976   0.00    0.0
2018/09/07 02:14:00.000   39.608594564  115.892495721    87.9928   6   7   0.1392   0.1025   0.2616  -0.0572   0.0469  -0.0972   0.00    0.0
2018/09/07 02:14:30.000   39.608594576  115.892495721    87.9928   6   7   0.1389   0.1024   0.2611  -0.0571   0.0470  -0.0969   0.00    0.0
2018/09/07 02:15:00.000   39.608594593  115.892495720    87.9921   6   7   0.1386   0.1022   0.2607  -0.0570   0.0470  -0.0965   0.00    0.0
2018/09/07 02:15:30.000   39.608594608  115.892495718    87.9927   6   7   0.1383   0.1021   0.2602  -0.0569   0.0471  -0.0962   0.00    0.0
2018/09/07 02:16:00.000   39.608594631  115.892495712    87.9922   6   7   0.1380   0.1020   0.2598  -0.0568   0.0471  -0.0959   0.00    0.0
2018/09/07 02:16:30.000   39.608594642  115.892495705    87.9936   6   7   0.1377   0.1019   0.2593  -0.0567   0.0472  -0.0955   0.00    0.0
2018/09/07 02:17:00.000   39.608594659  115.892495704    87.9936   6   7   0.1375   0.1017   0.2588  -0.0567   0.0472  -0.0952   0.00    0.0
2018/09/07 02:17:30.000   39.608594669  115.892495695    87.9949   6   7   0.1372   0.1016   0.2584  -0.0566   0.0473  -0.0949   0.00    0.0
2018/09/07 02:18:00.000   39.608594683  115.892495684    87.9966   6   7   0.1369   0.1015   0.2579  -0.0565   0.0473  -0.0945   0.00    0.0
2018/09/07 02:18:30.000   39.608594699  115.892495682    87.9970   6   7   0.1366   0.1014   0.2575  -0.0564   0.0474  -0.0942   0.00    0.0
2018/09/07 02:19:00.000   39.608594719  115.892495680    87.9976   6   7   0.1364   0.1013   0.2570  -0.0563   0.0474  -0.0939   0.00    0.0
2018/09/07 02:19:30.000   39.608594735  115.892495679    87.9977   6   7   0.1361   0.1011   0.2566  -0.0562   0.0475  -0.0936   0.00    0.0
2018/09/07 02:20:00.000   39.608594760  115.892495677    87.9964   6   7   0.1358   0.1010   0.2561  -0.0561   0.0475  -0.0932   0.00    0.0
2018/09/07 02:20:30.000   39.608594774  115.892495675    87.9968   6   7   0.1355   0.1009   0.2557  -0.0560   0.0476  -0.0929   0.00    0.0
2018/09/07 02:21:00.000   39.608594798  115.892495675    87.9964   6   7   0.1353   0.1008   0.2552  -0.0559   0.0476  -0.0926   0.00    0.0
2018/09/07 02:21:30.000   39.608594822  115.892495669    87.9971   6   7   0.1350   0.1007   0.2547  -0.0558   0.0477  -0.0923   0.00    0.0
2018/09/07 02:22:00.000   39.608594845  115.892495660    87.9984   6   7   0.1347   0.1006   0.2543  -0.0557   0.0478  -0.0920   0.00    0.0
2018/09/07 02:22:30.000   39.608594866  115.892495652    87.9986   6   7   0.1345   0.1005   0.2538  -0.0556   0.0478  -0.0917   0.00    0.0
2018/09/07 02:23:00.000   39.608594889  115.892495650    87.9986   6   7   0.1342   0.1003   0.2534  -0.0555   0.0479  -0.0914   0.00    0.0
2018/09/07 02:23:30.000   39.608594909  115.892495649    87.9993   6   7   0.1339   0.1002   0.2529  -0.0554   0.0480  -0.0911   0.00    0.0
2018/09/07 02:24:00.000   39.608594929  115.892495647    87.9993   6   7   0.1337   0.1001   0.2525  -0.0553   0.0480  -0.0908   0.00    0.0
2018/09/07 02:24:30.000   39.608594947  115.892495640    88.0008   6   7   0.1334   0.1000   0.2520  -0.0552   0.0481  -0.0905   0.00    0.0
2018/09/07 02:25:00.000   39.608594970  115.892495641    88.0004   6   7   0.1331   0.0999   0.2516  -0.0551   0.0481  -0.0902   0.00    0.0
2018/09/07 02:25:30.000   39.608594990  115.892495642    88.0004   6   7   0.1329   0.0998   0.2511  -0.0550   0.0482  -0.0899   0.00    0.0
2018/09/07 02:26:00.000   39.608595013  115.892495642    88.0006   6   7   0.1326   0.0997   0.2507  -0.0550   0.0483  -0.0897   0.00    0.0
2018/09/07 02:26:30.000   39.608595040  115.892495646    87.9995   6   7   0.1324   0.0996   0.2502  -0.0549   0.0483  -0.0894   0.00    0.0
2018/09/07 02:27:00.000   39.608595059  115.892495637    88.0007   6   7   0.1321   0.0995   0.2498  -0.0548   0.0484  -0.0891   0.00    0.0
2018/09/07 02:27:30.000   39.608595080  115.892495634    88.0014   6   7   0.1318   0.0994   0.2493  -0.0547   0.0485  -0.0888   0.00    0.0
2018/09/07 02:28:00.000   39.608595101  115.892495632    88.0016   6   7   0.1316   0.0993   0.2488  -0.0546   0.0485  -0.0885   0.00    0.0
2018/09/07 02:28:30.000   39.608595128  115.892495630    88.0014   6   7   0.1313   0.0992   0.2484  -0.0545   0.0486  -0.0883   0.00    0.0
2018/09/07 02:29:00.000   39.608595145  115.892495630    88.0014   6   7   0.1311   0.0991   0.2479  -0.0544   0.0487  -0.0880   0.00    0.0
2018/09/07 02:29:30.000   39.608595161  115.892495629    88.0020   6   7   0.1308   0.0990   0.2475  -0.0543   0.0487  -0.0877   0.00    0.0
2018/09/07 02:30:00.000   39.608595178  115.892495627    88.0028   6   7   0.1306   0.0989   0.2470  -0.0542   0.0488  -0.0875   0.00    0.0
2018/09/07 02:30:30.000   39.608595200  115.892495616    88.0043   6   7   0.1303   0.0988   0.2466  -0.0541   0.0488  -0.0872   0.00    0.0
2018/09/07 02:31:00.000   39.608595220  115.892495611    88.0049   6   7   0.1301   0.0987   0.2461  -0.0541   0.0489  -0.0870   0.00    0.0
2018/09/07 02:31:30.000   39.608595241  115.892495609    88.0056   6   7   0.1298   0.0986   0.2457  -0.0540   0.0490  -0.0867   0.00    0.0
2018/09/07 02:32:00.000   39.608595261  115.892495606    88.0065   6   7   0.1296   0.0985   0.2452  -0.0539   0.0490  -0.0865   0.00    0.0
2018/09/07 02:32:30.000   39.608595274  115.892495598    88.0068   6   6   0.1294   0.0984   0.2450  -0.0538   0.0490  -0.0863   0.00    0.0
2018/09/07 02:33:00.000   39.608595295  115.892495591    88.0064   6   6   0.1291   0.0983   0.2447  -0.0537   0.0490  -0.0862   0.00    0.0
2018/09/07 02:33:30.000   39.608595321  115.892495584    88.0060   6   6   0.1289   0.0982   0.2445  -0.0536   0.0490  -0.0860   0.00    0.0
2018/09/07 02:34:00.000   39.608595338  115.892495576    88.0063   6   6   0.1287   0.0981   0.2442  -0.0535   0.0489  -0.0859   0.00    0.0
2018/09/07 02:34:30.000   39.608595358  115.892495566    88.0066   6   6   0.1285   0.0980   0.2439  -0.0534   0.0489  -0.0857   0.00    0.0
2018/09/07 02:35:00.000   39.608595379  115.892495559    88.0075   6   6   0.1282   0.0979   0.2437  -0.0533   0.0489  -0.0856   0.00    0.0
2018/09/07 02:35:30.000   39.608595399  115.892495553    88.0075   6   6   0.1280   0.0978   0.2434  -0.0532   0.0489  -0.0854   0.00    0.0
2018/09/07 02:36:00.000   39.608595413  115.892495549    88.0075   6   6   0.1278   0.0977   0.2432  -0.0530   0.0488  -0.0853   0.00    0.0
2018/09/07 02:36:30.000   39.608595425  115.892495549    88.0076   6   6   0.1276   0.0977   0.2429  -0.0529   0.0488  -0.0852   0.00    0.0
2018/09/07 02:37:00.000   39.608595440  115.892495541    88.0088   6   6   0.1273   0.0976   0.2426  -0.0528   0.0488  -0.0850   0.00    0.0
2018/09/07 02:37:30.000   39.608595456  115.892495536    88.0093   6   6   0.1271   0.0975   0.2424  -0.0527   0.0488  -0.0849   0.00    0.0
2018/09/07 02:38:00.000   39.608595470  115.892495535    88.0093   6   6   0.1269   0.0974   0.2421  -0.0526   0.0488  -0.0847   0.00    0.0
2018/09/07 02:38:30.000   39.608595489  115.892495534    88.0080   6   6   0.1267   0.0973   0.2418  -0.0525   0.0487  -0.0846   0.00    0.0
2018/09/07 02:39:00.000   39.608595505  115.892495529    88.0078   6   6   0.1265   0.0972   0.2415  -0.0524   0.0487  -0.0844   0.00    0.0
2018/09/07 02:39:30.000   39.608595521  115.892495529    88.0078   6   6   0.1262   0.0971   0.2412  -0.0524   0.0487  -0.0843   0.00    0.0
2018/09/07 02:40:00.000   39.608595533  115.892495528    88.0087   6   6   0.1260   0.0971   0.2410  -0.0523   0.0487  -0.0842   0.00    0.0
2018/09/07 02:40:30.000   39.608595552  115.892495524    88.0088   6   6   0.1258   0.0970   0.2407  -0.0522   0.0487  -0.0840   0.00    0.0
2018/09/07 02:41:00.000   39.608595569  115.892495519    88.0088   6   6   0.1256   0.0969   0.2404  -0.0521   0.0486  -0.0839   0.00    0.0
2018/09/07 02:41:30.000   39.608595583  115.892495515    88.0090   6   6   0.1254   0.0968   0.2401  -0.0520   0.0486  -0.0837   0.00    0.0
2018/09/07 02:42:00.000   39.608595598  115.892495512    88.0097   6   6   0.1252   0.0967   0.2398  -0.0519   0.0486  -0.0836   0.00    0.0
2018/09/07 02:42:30.000   39.608595611  115.892495508    88.0107   6   6   0.1249   0.0966   0.2395  -0.0518   0.0486  -0.0835   0.00    0.0
2018/09/07 02:43:00.000   39.608595627  115.892495507    88.0103   6   6   0.1247   0.0966   0.2392  -0.0517   0.0486  -0.0833   0.00    0.0
2018/09/07 02:43:30.000   39.608595648  115.892495504    88.0102   6   6   0.1245   0.0965   0.2389  -0.0516   0.0485  -0.0832   0.00    0.0
2018/09/07 02:44:00.000   39.608595669  115.892495500    88.0098   6   6   0.1243   0.0964   0.2386  -0.0515   0.0485  -0.0831   0.00    0.0
2018/09/07 02:44:30.000   39.608595680  115.892495499    88.0100   6   6   0.1241   0.0963   0.2383  -0.0514   0.0485  -0.0829   0.00    0.0
2018/09/07 02:45:00.000   39.608595700  115.892495499    88.0092   6   6   0.1239   0.0962   0.2380  -0.0513   0.0485  -0.0828   0.00    0.0
2018/09/07 02:45:30.000   39.608595717  115.892495497    88.0088   6   6   0.1237   0.0962   0.2377  -0.0512   0.0485  -0.0827   0.00    0.0
2018/09/07 02:46:00.000   39.608595736  115.892495493    88.0094   6   6   0.1235   0.0961   0.2374  -0.0511   0.0484  -0.0825   0.00    0.0
2018/09/07 02:46:30.000   39.608595756  115.892495490    88.0093   6   6   0.1233   0.0960   0.2371  -0.0510   0.0484  -0.0824   0.00    0.0
2018/09/07 02:47:00.000   39.608595783  115.892495489    88.0079   6   6   0.1231   0.0959   0.2368  -0.0509   0.0484  -0.0822   0.00    0.0
2018/09/07 02:47:30.000   39.608595815  115.892495484    88.0065   6   6   0.1229   0.0959   0.2365  -0.0508   0.0484  -0.0821   0.00    0.0
2018/09/07 02:48:00.000   39.608595831  115.892495477    88.0079   6   6   0.1227   0.0958   0.2362  -0.0507   0.0483  -0.0820   0.00    0.0
2018/09/07 02:48:30.000   39.608595851  115.892495473    88.0084   6   6   0.1225   0.0957   0.2359  -0.0506   0.0483  -0.0818   0.00    0.0
2018/09/07 02:49:00.000   39.608595865  115.892495470    88.0082   6   6   0.1223   0.0956   0.2355  -0.0505   0.0483  -0.0817   0.00    0.0
2018/09/07 02:49:30.000   39.608595883  115.892495466    88.0082   6   6   0.1221   0.0956   0.2352  -0.0505   0.0483  -0.0816   0.00    0.0
2018/09/07 02:50:00.000   39.608595891  115.892495463    88.0089   6   6   0.1219   0.0955   0.2349  -0.0504   0.0482  -0.0814   0.00    0.0
2018/09/07 02:50:30.000   39.608595906  115.892495459    88.0096   6   6   0.1217   0.0954   0.2346  -0.0503   0.0482  -0.0813   0.00    0.0
2018/09/07 02:51:00.000   39.608595923  115.892495458    88.0097   6   6   0.1215   0.0953   0.2343  -0.0502   0.0482  -0.0812   0.00    0.0
2018/09/07 02:51:30.000   39.608595940  115.892495456    88.0097   6   6   0.1213   0.0953   0.2339  -0.0501   0.0481  -0.0810   0.00    0.0
2018/09/07 02:52:00.000   39.608595951  115.892495452    88.0099   6   6   0.1211   0.0952   0.2336  -0.0500   0.0481  -0.0809   0.00    0.0
2018/09/07 02:52:30.000   39.608595962  115.892495452    88.0092   6   6   0.1209   0.0951   0.2333  -0.0499   0.0481  -0.0808   0.00    0.0
2018/09/07 02:53:00.000   39.608595975  115.892495449    88.0097   6   6   0.1207   0.0950   0.2329  -0.0498   0.0481  -0.0806   0.00    0.0
2018/09/07 02:53:30.000   39.608595992  115.892495449    88.0096   6   6   0.1205   0.0950   0.2326  -0.0497   0.0480  -0.0805   0.00    0.0
2018/09/07 02:54:00.000   39.608596028  115.892495424    88.0046   6   7   0.1203   0.0949   0.2321  -0.0496   0.0478  -0.0802   0.00    0.0
2018/09/07 02:54:30.000   39.608596062  115.892495390    87.9961   6   8   0.1200   0.0947   0.2316  -0.0494   0.0474  -0.0799   0.00    0.0
2018/09/07 02:55:00.000   39.608596093  115.892495359    87.9892   6   8   0.1198   0.0946   0.2311  -0.0492   0.0471  -0.0796   0.00    0.0
2018/09/07 02:55:30.000   39.608596127  115.892495329    87.9824   6   8   0.1196   0.0945   0.2305  -0.0491   0.0467  -0.0794   0.00    0.0
2018/09/07 02:56:00.000   39.608596160  115.892495300    87.9749   6   8   0.1193   0.0943   0.2300  -0.0489   0.0463  -0.0791   0.00    0.0
2018/09/07 02:56:30.000   39.608596189  115.892495275    87.9689   6   8   0.1191   0.0942   0.2295  -0.0488   0.0460  -0.0788   0.00    0.0
2018/09/07 02:57:00.000   39.608596219  115.892495251    87.9621   6   8   0.1189   0.0941   0.2290  -0.0486   0.0456  -0.0786   0.00    0.0
2018/09/07 02:57:30.000   39.608596252  115.892495223    87.9540   6   8   0.1186   0.0940   0.2285  -0.0484   0.0453  -0.0783   0.00    0.0
2018/09/07 02:58:00.000   39.608596282  115.892495199    87.9476   6   8   0.1184   0.0938   0.2280  -0.0483   0.0449  -0.0780   0.00    0.0
2018/09/07 02:58:30.000   39.608596306  115.892495173    87.9415   6   8   0.1182   0.0937   0.2274  -0.0481   0.0446  -0.0778   0.00    0.0
2018/09/07 02:59:00.000   39.608596338  115.892495147    87.9346   6   8   0.1180   0.0936   0.2269  -0.0480   0.0442  -0.0775   0.00    0.0
2018/09/07 02:59:30.000   39.608596362  115.892495119    87.9288   6   8   0.1178   0.0935   0.2264  -0.0478   0.0439  -0.0773   0.00    0.0
2018/09/07 03:00:00.000   39.608596390  115.892495089    87.9228   6   8   0.1175   0.0933   0.2259  -0.0477   0.0435  -0.0770   0.00    0.0
2018/09/07 03:00:30.000   39.608596418  115.892495053    87.9170   6   7   0.1174   0.0932   0.2255  -0.0475   0.0432  -0.0769   0.00    0.0
2018/09/07 03:01:00.000   39.608596448  115.892495014    87.9103   6   7   0.1172   0.0931   0.2251  -0.0474   0.0428  -0.0768   0.00    0.0
2018/09/07 03:01:30.000   39.608596477  115.892494979    87.9043   6   7   0.1170   0.0930   0.2248  -0.0472   0.0425  -0.0766   0.00    0.0
2018/09/07 03:02:00.000   39.608596507  115.892494944    87.8986   6   7   0.1168   0.0929   0.2244  -0.0471   0.0421  -0.0765   0.00    0.0
2018/09/07 03:02:30.000   39.608596532  115.892494923    87.8890   6   8   0.1166   0.0927   0.2240  -0.0469   0.0418  -0.0764   0.00    0.0
2018/09/07 03:03:00.000   39.608596549  115.892494911    87.8821   6   8   0.1165   0.0926   0.2235  -0.0467   0.0416  -0.0763   0.00    0.0
2018/09/07 03:03:30.000   39.608596574  115.892494883    87.8724   6   8   0.1163   0.0925   0.2231  -0.0466   0.0413  -0.0762   0.00    0.0
2018/09/07 03:04:00.000   39.608596600  115.892494857    87.8649   6   8   0.1161   0.0924   0.2227  -0.0464   0.0410  -0.0761   0.00    0.0
2018/09/07 03:04:30.000   39.608596625  115.892494835    87.8578   6   8   0.1159   0.0922   0.2223  -0.0462   0.0407  -0.0760   0.00    0.0
2018/09/07 03:05:00.000   39.608596647  115.892494818    87.8514   6   8   0.1158   0.0921   0.2219  -0.0461   0.0405  -0.0759   0.00    0.0
2018/09/07 03:05:30.000   39.608596673  115.892494788    87.8425   6   8   0.1156   0.0920   0.2215  -0.0459   0.0402  -0.0758   0.00    0.0
2018/09/07 03:06:00.000   39.608596692  115.892494770    87.8351   6   8   0.1154   0.0918   0.2211  -0.0458   0.0399  -0.0757   0.00    0.0
2018/09/07 03:06:30.000   39.608596711  115.892494753    87.8278   6   8   0.1152   0.0917   0.2207  -0.0456   0.0397  -0.0756   0.00    0.0
2018/09/07 03:07:00.000   39.608596733  115.892494732    87.8203   6   8   0.1151   0.0916   0.2202  -0.0455   0.0394  -0.0755   0.00    0.0
2018/09/07 03:07:30.000   39.608596759  115.892494711    87.8127   6   8   0.1149   0.0915   0.2198  -0.0453   0.0391  -0.0754   0.00    0.0
2018/09/07 03:08:00.000   39.608596777  115.892494692    87.8057   6   8   0.1147   0.0914   0.2194  -0.0451   0.0389  -0.0753   0.00    0.0
2018/09/07 03:08:30.000   39.608596798  115.892494680    87.7987   6   8   0.1146   0.0912   0.2190  -0.0450   0.0386  -0.0752   0.00    0.0
2018/09/07 03:09:00.000   39.608596824  115.892494656    87.7903   6   8   0.1144   0.0911   0.2186  -0.0448   0.0384  -0.0751   0.00    0.0
2018/09/07 03:09:30.000   39.608596846  115.892494627    87.7834   6   8   0.1142   0.0910   0.2182  -0.0447   0.0381  -0.0750   0.00    0.0
2018/09/07 03:10:00.000   39.608596868  115.892494606    87.7756   6   8   0.1141   0.0909   0.2179  -0.0445   0.0379  -0.0749   0.00    0.0
2018/09/07 03:10:30.000   39.608596895  115.892494587    87.7688   6   8   0.1139   0.0907   0.2175  -0.0444   0.0376  -0.0748   0.00    0.0
2018/09/07 03:11:00.000   39.608596918  115.892494563    87.7622   6   8   0.1137   0.0906   0.2171  -0.0442   0.0373  -0.0747   0.00    0.0
2018/09/07 03:11:30.000   39.608596942  115.892494538    87.7557   6   8   0.1136   0.0905   0.2167  -0.0441   0.0371  -0.0746   0.00    0.0
2018/09/07 03:12:00.000   39.608596961  115.892494521    87.7494   6   8   0.1134   0.0904   0.2163  -0.0439   0.0368  -0.0745   0.00    0.0
2018/09/07 03:12:30.000   39.608596981  115.892494501    87.7436   6   8   0.1133   0.0903   0.2159  -0.0438   0.0366  -0.0744   0.00    0.0
2018/09/07 03:13:00.000   39.608597003  115.892494479    87.7371   6   8   0.1131   0.0902   0.2155  -0.0436   0.0363  -0.0743   0.00    0.0
2018/09/07 03:13:30.000   39.608597026  115.892494455    87.7309   6   8   0.1129   0.0900   0.2151  -0.0435   0.0361  -0.0742   0.00    0.0
2018/09/07 03:14:00.000   39.608597048  115.892494442    87.7255   6   8   0.1128   0.0899   0.2147  -0.0433   0.0358  -0.0742   0.00    0.0
2018/09/07 03:14:30.000   39.608597067  115.892494422    87.7186   6   8   0.1126   0.0898   0.2144  -0.0432   0.0356  -0.0741   0.00    0.0
2018/09/07 03:15:00.000   39.608597095  115.892494391    87.7125   6   8   0.1125   0.0897   0.2140  -0.0430   0.0353  -0.0740   0.00    0.0
2018/09/07 03:15:30.000   39.608597121  115.892494365    87.7066   6   8   0.1123   0.0896   0.2136  -0.0429   0.0351  -0.0739   0.00    0.0
2018/09/07 03:16:00.000   39.608597149  115.892494344    87.7020   6   8   0.1122   0.0895   0.2132  -0.0427   0.0349  -0.0738   0.00    0.0
2018/09/07 03:16:30.000   39.608597174  115.892494316    87.6954   6   8   0.1120   0.0893   0.2129  -0.0426   0.0346  -0.0737   0.00    0.0
2018/09/07 03:17:00.000   39.608597194  115.892494304    87.6886   6   9   0.1119   0.0892   0.2125  -0.0424   0.0344  -0.0736   0.00    0.0
2018/09/07 03:17:30.000   39.608597213  115.892494281    87.6806   6   9   0.1117   0.0891   0.2121  -0.0423   0.0343  -0.0735   0.00    0.0
2018/09/07 03:18:00.000   39.608597225  115.892494258    87.6736   6   9   0.1115   0.0890   0.2117  -0.0421   0.0341  -0.0735   0.00    0.0
2018/09/07 03:18:30.000   39.608597239  115.892494243    87.6676   6   9   0.1114   0.0889   0.2113  -0.0419   0.0339  -0.0734   0.00    0.0
2018/09/07 03:19:00.000   39.608597252  115.892494229    87.6607   6   9   0.1112   0.0887   0.2109  -0.0418   0.0337  -0.0733   0.00    0.0
2018/09/07 03:19:30.000   39.608597273  115.892494207    87.6540   6   9   0.1111   0.0886   0.2105  -0.0416   0.0335  -0.0732   0.00    0.0
2018/09/07 03:20:00.000   39.608597292  115.892494190    87.6483   6   9   0.1109   0.0885   0.2101  -0.0414   0.0334  -0.0732   0.00    0.0
2018/09/07 03:20:30.000   39.608597308  115.892494174    87.6427   6   9   0.1108   0.0884   0.2097  -0.0413   0.0332  -0.0731   0.00    0.0
2018/09/07 03:21:00.000   39.608597330  115.892494150    87.6357   6   9   0.1106   0.0883   0.2093  -0.0411   0.0330  -0.0730   0.00    0.0
2018/09/07 03:21:30.000   39.608597344  115.892494137    87.6298   6   9   0.1105   0.0882   0.2089  -0.0409   0.0328  -0.0730   0.00    0.0
2018/09/07 03:22:00.000   39.608597360  115.892494117    87.6246   6   9   0.1103   0.0880   0.2086  -0.0408   0.0326  -0.0729   0.00    0.0
2018/09/07 03:22:30.000   39.608597379  115.892494098    87.6191   6   9   0.1102   0.0879   0.2082  -0.0406   0.0325  -0.0728   0.00    0.0
2018/09/07 03:23:00.000   39.608597395  115.892494085    87.6136   6   9   0.1100   0.0878   0.2078  -0.0405   0.0323  -0.0727   0.00    0.0
2018/09/07 03:23:30.000   39.608597412  115.892494071    87.6073   6   9   0.1099   0.0877   0.2074  -0.0403   0.0321  -0.0727   0.00    0.0
2018/09/07 03:24:00.000   39.608597430  115.892494057    87.6002   6   9   0.1097   0.0876   0.2070  -0.0401   0.0319  -0.0726   0.00    0.0
2018/09/07 03:24:30.000   39.608597448  115.892494037    87.5948   6   9   0.1096   0.0875   0.2067  -0.0400   0.0318  -0.0725   0.00    0.0
2018/09/07 03:25:00.000   39.608597465  115.892494021    87.5901   6   9   0.1094   0.0873   0.2063  -0.0398   0.0316  -0.0724   0.00    0.0
2018/09/07 03:25:30.000   39.608597481  115.892494003    87.5853   6   9   0.1093   0.0872   0.2059  -0.0397   0.0314  -0.0723   0.00    0.0
2018/09/07 03:26:00.000   39.608597496  115.892493989    87.5789   6   9   0.1091   0.0871   0.2055  -0.0395   0.0313  -0.0723   0.00    0.0
2018/09/07 03:26:30.000   39.608597516  115.892493966    87.5731   6   9   0.1090   0.0870   0.2052  -0.0394   0.0311  -0.0722   0.00    0.0
2018/09/07 03:27:00.000   39.608597535  115.892493951    87.5681   6   9   0.1089   0.0869   0.2048  -0.0392   0.0309  -0.0721   0.00    0.0
2018/09/07 03:27:30.000   39.608597559  115.892493937    87.5632   6   9   0.1087   0.0868   0.2045  -0.0391   0.0307  -0.0720   0.00    0.0
2018/09/07 03:28:00.000   39.608597576  115.892493930    87.5590   6   9   0.1086   0.0867   0.2041  -0.0389   0.0306  -0.0719   0.00    0.0
2018/09/07 03:28:30.000   39.608597593  115.892493912    87.5538   6   9   0.1084   0.0866   0.2037  -0.0387   0.0304  -0.0719   0.00    0.0
2018/09/07 03:29:00.000   39.608597606  115.892493899    87.5482   6   9   0.1083   0.0864   0.2034  -0.0386   0.0302  -0.0718   0.00    0.0
