     2.00           OBSERVATION DATA    G (GPS)             RINEX VERSION / TYPE
teqc  1999Jul19     autorun             20080809 04:12:47UTCPGM / RUN BY / DATE
MSWinNT 4.0|PentPro|wcl386 10.6|MSWin95/98/NT|486/DX+       COMMENT
BIT 2 OF LLI FLAGS DATA COLLECTED UNDER A/S CONDITION       COMMENT
BJFS                                                        MARKER NAME
21601M001                                                   MARKER NUMBER
QUFENG              CASM                                    OBSERVER / AGENCY
3332                ASHTECH Z-XII3      CD00-1D02           REC # / TYPE / VERS
1126                ASH700936B_M    SNOW                    ANT # / TYPE
        0.0000        0.0000        0.0000                  APPROX POSITION XYZ
        0.0460        0.0000        0.0000                  ANTENNA: DELTA H/E/N
     1     1                                                WAVELENGTH FACT L1/2
     5    L1    L2    C1    P1    P2                        # / TYPES OF OBSERV
    30.0000                                                 INTERVAL
 SNR is mapped to RINEX snr flag value [1-9]                COMMENT
  L1: 1 -> 1;  90 -> 5; 210 -> 9                            COMMENT
  L2: 1 -> 1; 150 -> 5; 250 -> 9                            COMMENT
  2008     8     8     0     0   30.0000000     GPS         TIME OF FIRST OBS
                                                            END OF HEADER
 08  8  8  0  0 30.0000000  0  7G14G12G18G 9G22G21G15
  -8725488.09049  -6369057.78246  22916392.498    22916392.592    22916394.314
 -12414867.20849  -9612840.39946  23209260.550    23209261.193    23209263.136
 -24964594.02049 -19412001.17447  20255752.105    20255751.885    20255753.858
 -25124260.29149 -19494947.04847  20150401.301    20150401.218    20150404.191
 -21748775.89249 -16925178.35447  21188675.698    21188675.765    21188676.645
 -13734171.46149 -10657296.27446  22472712.725    22472712.435    22472714.395
  -6385823.08249  -4939045.16045  24083446.421    24083447.426    24083449.023
 08  8  8  0  1  0.0000000  0  7G14G12G18G 9G22G21G15
  -8791621.52249  -6420590.33846  22903807.800    22903808.114    22903809.865
 -12491674.37049  -9672690.13446  23194644.603    23194645.021    23194647.177
 -24958962.45649 -19407612.95447  20256823.742    20256823.313    20256825.368
 -25085659.06149 -19464868.17047  20157746.834    20157746.732    20157749.668
 -21809747.10949 -16972688.39747  21177073.287    21177073.467    21177073.853
 -13639708.90549 -10583689.10246  22490688.442    22490688.680    22490690.153
  -6304786.19549  -4875899.57945  24098867.611    24098868.690    24098870.658
 08  8  8  0  1 30.0000000  0  7G14G12G18G 9G22G21G15
  -8857619.35549  -6472017.21246  22891248.893    22891248.818    22891251.300
 -12568191.94849  -9732314.21246  23180083.750    23180084.761    23180086.481
 -24952864.27749 -19402861.13547  20257984.154    20257983.780    20257985.802
 -25046473.72149 -19434334.14147  20165203.544    20165203.680    20165206.376
 -21870421.24149 -17019966.94347  21165527.420    21165527.680    21165527.865
 -13544985.17049 -10509878.40146  22508713.727    22508713.402    22508714.479
  -6223710.59649  -4812723.83645  24114295.979    24114296.400    24114298.512
 08  8  8  0  2  0.0000000  0  7G14G12G18G 9G22G21G15
  -8923480.78349  -6523337.80346  22878715.926    22878715.395    22878718.803
 -12644416.02549  -9791709.61146  23165578.847    23165578.973    23165580.720
 -24946298.26149 -19397744.77947  20259233.614    20259233.225    20259235.291
 -25006705.02449 -19403345.55047  20172771.303    20172771.311    20172774.067
 -21930795.28649 -17067011.65547  21154038.658    21154038.494    21154039.043
 -13450001.89149 -10435865.45646  22526788.334    22526787.709    22526790.243
  -6142595.79149  -4749517.50445  24129731.451    24129732.084    24129734.792
 08  8  8  0  2 30.0000000  0  7G14G12G18G 9G22G21G15
  -8989207.07049  -6574553.09146  22866208.664    22866208.743    22866210.929
 -12720344.70149  -9850874.81746  23151130.011    23151130.566    23151132.007
 -24939264.37049 -19392263.83647  20260572.122    20260571.828    20260573.591
 -24966356.38349 -19371905.04547  20180449.364    20180449.356    20180452.237
 -21990868.69249 -17113822.09247  21142607.070    21142606.988    21142607.093
 -13354763.58649 -10361653.79446  22544911.532    22544911.003    22544913.453
  -6061443.35349  -4686281.87545  24145173.924    24145173.194    24145178.068
 08  8  8  0  3  0.0000000  0  7G14G12G18G 9G22G21G15
  -9054797.28649  -6625662.33546  22853727.283    22853727.304    22853729.235
 -12795974.14549  -9909806.85546  23136738.137    23136738.549    23136740.520
 -24931761.23949 -19386417.25147  20261999.945    20261999.590    20262001.461
 -24925429.09049 -19340013.64447  20188237.577    20188237.574    20188240.276
 -22050638.07249 -17160395.62847  21131233.344    21131233.282    21131233.710
 -13259272.73949 -10287245.35546  22563082.753    22563081.933    22563084.834
  -5980252.67149  -4623016.44045  24160624.024    24160624.228    24160626.454
 08  8  8  0  3 30.0000000  0  7G14G12G18G 9G22G21G15
  -9120251.96149  -6676665.96846  22841271.755    22841271.287    22841273.720
 -12871301.65349  -9968503.62846  23122403.799    23122404.063    23122406.458
 -24923788.57149 -19380204.81147  20263517.128    20263516.779    20263518.752
 -24883926.04549 -19307673.60447  20196135.406    20196135.576    20196138.062
 -22110102.51649 -17206731.55647  21119917.600    21119917.555    21119917.934
 -13163533.18649 -10212643.11746  22581301.161    22581300.561    22581304.310
  -5899025.12949  -4559722.28645  24176081.327    24176081.857    24176084.275
 08  8  8  0  4  0.0000000  0  7G14G12G18G 9G22G21G15
  -9185571.88749  -6727564.59546  22828841.717    22828842.161    22828843.924
 -12946324.97249 -10026963.37146  23108127.341    23108127.796    23108130.506
 -24915346.18849 -19373626.35147  20265123.637    20265123.307    20265125.218
 -24841849.89949 -19274886.99247  20204142.243    20204142.343    20204144.926
 -22169260.72549 -17252828.85747  21108660.153    21108660.229    21108660.515
 -13067548.73849 -10137850.03946  22599566.126    22599565.596    22599568.470
  -5817761.19349  -4496399.77645  24191545.472    24191545.631    24191547.766
 08  8  8  0  4 30.0000000  0  7G14G12G18G 9G22G21G15
  -9250756.05249  -6778357.43146  22816437.561    22816437.259    22816439.679
 -13021040.25349 -10085183.09546  23093909.473    23093909.959    23093912.064
 -24906432.21149 -19366680.39547  20266819.887    20266819.593    20266821.700
 -24799201.57649 -19241654.53147  20212257.964    20212258.115    20212260.508
 -22228109.71849 -17298685.22247  21097461.519    21097461.451    21097462.081
 -12971321.75749 -10062867.98946  22617877.310    22617877.159    22617880.106
  -5736460.54249  -4433048.66045  24207016.621    24207016.901    24207018.851
 08  8  8  0  5  0.0000000  0  7G14G12G18G 9G22G21G15
  -9315804.46449  -6829044.48246  22804059.237    22804059.638    22804061.672
 -13095444.44149 -10143160.37646  23079750.870    23079751.900    23079753.301
 -24897046.01249 -19359366.47147  20268606.063    20268605.846    20268607.584
 -24755983.33749 -19207977.98147  20220482.064    20220481.992    20220484.833
 -22286647.46449 -17344299.05147  21086322.131    21086322.063    21086322.392
 -12874855.23749  -9987699.29446  22636234.294    22636234.321    22636237.446
  -5655123.23049  -4369668.96745  24222494.446    24222494.256    24222497.074
 08  8  8  0  5 30.0000000  0  7G14G12G18G 9G22G21G15
  -9380717.08249  -6879625.75646  22791706.639    22791705.730    22791708.948
 -13169534.35249 -10200892.78146  23065652.060    23065653.051    23065655.016
 -24887186.88349 -19351684.06047  20270482.199    20270481.977    20270483.836
 -24712197.74949 -19173859.34847  20228814.176    20228814.003    20228816.828
 -22344871.93449 -17389668.77147  21075242.333    21075242.363    21075242.867
 -12778152.36049  -9912346.40346  22654636.211    22654636.272    22654638.343
  -5573749.79249  -4306261.13845  24237979.249    24237979.346    24237982.535
 08  8  8  0  6  0.0000000  0  7G14G12G18G 9G22G21G15
  -9445494.41049  -6930101.58346  22779379.758    22779379.644    22779382.944
 -13243307.58749 -10258378.41546  23051613.493    23051613.530    23051616.259
 -24876854.33349 -19343632.73647  20272448.436    20272448.256    20272450.159
 -24667847.40249 -19139300.64647  20237253.708    20237253.611    20237256.394
 -22402781.25449 -17434792.91647  21064222.568    21064222.652    21064222.991
 -12681216.67549  -9836812.13245  22673082.500    22673082.622    22673084.686
  -5492341.00949  -4242825.76645  24253470.926    24253471.571    24253473.217
 08  8  8  0  6 30.0000000  0  7G14G12G18G 9G22G21G15
  -9510135.57949  -6980471.30546  22767078.992    22767079.009    22767081.506
 -13316760.37849 -10315614.36746  23037635.943    23037636.096    23037637.597
 -24866046.92449 -19335211.40047  20274505.087    20274504.682    20274506.614
 -24622933.31049 -19104302.66447  20245800.541    20245800.424    20245803.145
 -22460373.15849 -17479669.72247  21053263.162    21053262.959    21053263.585
 -12584050.77149  -9761098.44945  22691572.715    22691573.071    22691575.662
  -5410896.49949  -4179362.55845  24268969.070    24268969.042    24268972.575
 08  8  8  0  7  0.0000000  0  7G14G12G18G 9G22G21G15
  -9574641.23949  -7030735.43846  22754804.012    22754803.168    22754806.306
 -13389890.53049 -10372598.89946  23023719.690    23023719.671    23023721.988
 -24854764.63149 -19326420.01447  20276652.028    20276651.646    20276653.705
 -24577458.26949 -19068867.57447  20254454.181    20254454.233    20254457.133
 -22517646.09049 -17524297.97647  21042364.468    21042364.604    21042364.864
 -12486658.51649  -9685208.39645  22710106.168    22710106.151    22710108.873
  -5329416.96349  -4115872.05545  24284474.034    24284474.938    24284478.082
 08  8  8  0  7 30.0000000  0  7G14G12G18G 9G22G21G15
  -9639011.47449  -7080894.05646  22742554.804    22742555.207    22742557.500
 -13462695.48649 -10429330.04246  23009865.368    23009865.751    23009867.760
 -24843007.31549 -19317258.49147  20278889.372    20278889.177    20278890.943
 -24531425.15149 -19032997.61547  20263214.027    20263214.139    20263216.790
 -22574598.86449 -17568676.76347  21031526.692    21031526.897    21031527.184
 -12389043.66549  -9609144.89345  22728681.720    22728681.291    22728683.370
  -5247903.33549  -4052354.97645  24299985.632    24299986.050    24299990.191
 08  8  8  0  8  0.0000000  0  7G14G12G18G 9G22G21G15
  -9703247.01949  -7130947.71846  22730331.222    22730331.019    22730333.372
 -13535172.62449 -10485805.71346  22996073.504    22996074.249    22996075.573
 -24830774.75649 -19307726.64947  20281217.172    20281216.736    20281218.866
 -24484836.45349 -18996694.73647  20272079.562    20272079.541    20272082.319
 -22631229.44949 -17612804.49547  21020750.260    21020750.707    21020750.730
 -12291209.71949  -9532910.65545  22747298.861    22747298.343    22747300.075
  -5166356.15049  -3988811.77845  24315503.494    24315503.577    24315506.808
 08  8  8  0  8 30.0000000  0  7G14G12G18G 9G22G21G15
  -9767346.91349  -7180895.67946  22718133.488    22718134.173    22718135.934
 -13607317.80149 -10542022.72346  22982344.726    22982345.253    22982348.041
 -24818064.84249 -19297822.83147  20283635.753    20283635.162    20283637.319
 -24437693.49949 -18959959.97647  20281050.607    20281050.651    20281053.329
 -22687534.62349 -17656678.65747  21010035.783    21010035.945    21010036.560
 -12193158.85749  -9456507.40745  22765957.206    22765956.586    22765958.441
  -5084774.58649  -3925241.78145  24331027.960    24331029.169    24331031.179
 08  8  8  0  9  0.0000000  0  7G14G12G18G 9G22G21G15
  -9831309.91949  -7230736.97746  22705961.771    22705961.280    22705963.947
 -13679127.23549 -10597978.12146  22968679.815    22968679.814    22968682.161
 -24804876.12849 -19287545.91447  20286145.431    20286144.994    20286147.220
 -24389997.53049 -18922794.29247  20290126.845    20290127.017    20290129.781
 -22743511.70049 -17700297.16847  20999383.671    20999383.869    20999384.649
 -12094893.00549  -9379936.61945  22784656.465    22784655.691    22784657.961
  -5003158.16049  -3861644.63045  24346559.062    24346559.198    24346563.181
 08  8  8  0  9 30.0000000  0  7G14G12G18G 9G22G21G15
  -9895136.37249  -7280471.85946  22693815.982    22693816.148    22693817.963
 -13750597.99449 -10653669.59346  22955079.295    22955079.999    22955081.679
 -24791208.23349 -19276895.60147  20288746.334    20288745.993    20288748.207
 -24341751.01249 -18885199.60547  20299307.871    20299307.742    20299310.753
 -22799158.83549 -17743658.56947  20988794.352    20988794.540    20988795.330
 -11996415.74549  -9303201.10445  22803396.070    22803396.017    22803398.078
  -4921507.36149  -3798020.67745  24362096.458    24362097.171    24362100.114
 08  8  8  0 10 30.0000000  0  7G14G12G18G 9G22G21G15
 -10022402.26149  -7379640.07346  22669598.072    22669597.444    22669600.031
 -13892535.41249 -10764270.10846  22928069.474    22928069.568    22928072.348
 -24762456.18149 -19254491.43547  20294217.660    20294217.506    20294219.531
 -24243638.91549 -18808748.63147  20317977.978    20317978.066    20317980.661
 -22909478.97849 -17829622.33547  20967801.138    20967801.213    20967801.934
 -11798863.63049  -9149264.44145  22840989.013    22840989.242    22840990.620
  -4758126.65149  -3670711.13045  24393186.844    24393186.968    24393191.007
 08  8  8  0 11  0.0000000  0  7G14G12G18G 9G22G21G15
 -10085811.61749  -7429049.96046  22657531.663    22657530.888    22657534.306
 -13962966.34449 -10819151.33346  22914666.955    22914667.676    22914669.472
 -24747340.74149 -19242713.19147  20297094.031    20297093.864    20297095.973
 -24193748.27549 -18769872.80747  20327471.869    20327471.954    20327474.617
 -22964118.00249 -17872198.20747  20957403.660    20957403.991    20957404.143
 -11699765.03949  -9072044.78945  22859846.890    22859845.828    22859848.155
  -4676367.62949  -3607002.87245  24408745.330    24408746.377    24408748.066
 08  8  8  0 11 30.0000000  0  7G14G12G18G 9G22G21G15
 -10149088.88349  -7478356.91746  22645490.347    22645490.263    22645493.367
 -14033051.80949 -10873763.34546  22901330.149    22901330.599    22901333.431
 -24731748.28749 -19230563.24347  20300061.202    20300061.000    20300063.103
 -24143321.51349 -18730579.23347  20337067.754    20337067.591    20337070.638
 -23018424.05649 -17914514.62347  20947069.592    20947069.695    20947070.177
 -11600472.87649  -8994674.27545  22878741.593    22878741.117    22878744.342
  -4594580.09249  -3543272.36345  24424309.390    24424310.462    24424313.781
 08  8  8  0 12  0.0000000  0  8G14G12G18G30G 9G22G21G15
 -10212232.01949  -7527559.35646  22633474.588    22633474.162    22633477.219
 -14102786.97249 -10928102.40146  22888059.846    22888059.866    22888062.329
 -24715676.46549 -19218039.75147  20303119.644    20303119.303    20303121.539
   -761760.14249   -561673.21543
 -24092358.52049 -18690867.81847  20346765.701    20346765.697    20346768.571
 -23072392.97649 -17956568.33947  20936799.702    20936800.005    20936800.343
 -11500988.24549  -8917153.81545  22897672.972    22897672.291    22897675.141
  -4512762.41249  -3479518.36545  24439878.843    24439878.984    24439882.640
 08  8  8  0 12 30.0000000  0  8G14G12G18G30G 9G22G21G15
 -10275239.89549  -7576656.39546  22621484.528    22621484.322    22621487.389
 -14172167.34949 -10982165.01946  22874857.160    22874857.276    22874859.319
 -24699123.09549 -19205141.03347  20306269.715    20306269.282    20306271.413
   -869575.92149   -645685.62143
 -24040860.48649 -18650739.49247  20356565.475    20356565.283    20356568.380
 -23126021.14549 -17998356.53247  20926594.646    20926594.860    20926595.085
 -11401312.62849  -8839484.51945  22916640.714    22916640.970    22916643.058
  -4430912.84449  -3415739.52545  24455454.196    24455455.450    24455456.882
 08  8  8  0 13  0.0000000  0  8G14G12G18G30G 9G22G21G15
 -10338111.89049  -7625647.53746  22609520.415    22609520.295    22609522.959
 -14241190.01849 -11035948.89146  22861722.513    22861722.769    22861723.902
 -24682087.53449 -19191866.57847  20309511.473    20309511.208    20309513.186
   -977415.95149   -729716.91343
 -23988829.80649 -18610196.11047  20366466.542    20366466.469    20366469.404
 -23179306.49449 -18039877.58247  20916454.804    20916455.010    20916455.076
 -11301449.40449  -8761669.04745  22935644.202    22935644.664    22935646.163
  -4349031.98549  -3351936.31145  24471035.671    24471037.553    24471038.381
 08  8  8  0 13 30.0000000  0  8G14G12G18G30G 9G22G21G15
 -10400847.78449  -7674532.64346  22597582.149    22597581.780    22597584.383
 -14309851.45749 -11089451.27546  22848656.633    22848657.184    22848659.219
 -24664569.08649 -19178215.85847  20312845.138    20312845.050    20312846.704
  -1085276.92949   -813764.49745                                  24309770.812
 -23936268.23449 -18569239.05347  20376468.674    20376468.684    20376471.498
 -23232246.85449 -18081129.81047  20906380.546    20906380.604    20906381.053
 -11201401.17149  -8683709.41345  22954682.916    22954682.864    22954685.109
  -4267119.39549  -3288108.33545  24486622.995    24486623.823    24486627.317
 08  8  8  0 14  0.0000000  0  8G14G12G18G30G 9G22G21G15
 -10463447.07949  -7723311.29446  22585669.887    22585669.646    22585671.476
 -14378148.58449 -11142669.78646  22835660.300    22835660.821    22835662.729
 -24646566.93549 -19164188.20747  20316270.862    20316270.599    20316272.511
  -1193155.96249   -897826.09745  24289239.554    24289240.529    24289242.245
 -23883177.89449 -18527869.95947  20386571.394    20386571.120    20386574.231
 -23284840.09349 -18122111.54547  20896372.376    20896372.482    20896373.081
 -11101170.82349  -8605607.87145  22973756.157    22973755.840    22973757.352
  -4185175.69149  -3224256.17245  24502216.267    24502217.408    24502219.315
 08  8  8  0 14 30.0000000  0  8G14G12G18G30G 9G22G21G15
 -10525910.28149  -7771983.89446  22573783.484    22573782.845    22573786.022
 -14446079.17049 -11195602.67946  22822733.595    22822733.800    22822735.628
 -24628080.97349 -19149783.58547  20319788.654    20319788.543    20319790.147
  -1301050.46649   -981899.76145  24268707.841    24268708.942    24268710.654
 -23829561.68449 -18486091.10047  20396774.163    20396774.077    20396777.133
 -23337084.48249 -18162821.46347  20886430.631    20886430.765    20886431.083
 -11000762.18549  -8527367.40545  22992863.233    22992863.292    22992865.087
  -4103201.03549  -3160379.86745  24517815.620    24517816.899    24517818.897
 08  8  8  0 15  0.0000000  0  8G14G12G18G30G 9G22G21G15
 -10588236.25549  -7820549.55846  22561923.239    22561922.666    22561926.250
 -14513639.26049 -11248246.87846  22809877.217    22809877.231    22809879.008
 -24609109.81749 -19135000.89847  20323398.789    20323398.794    20323400.326
  -1408956.33349  -1065982.27245  24248173.898    24248175.947    24248175.543
 -23775421.13449 -18443903.66947  20407076.768    20407077.015    20407079.733
 -23388977.05049 -18203257.23347  20876555.782    20876556.051    20876556.466
 -10900177.28749  -8448989.58445  23012003.960    23012004.591    23012006.386
  -4021194.75549  -3096478.93445  24533421.295    24533422.235    24533424.629
 08  8  8  0 15 30.0000000  0  8G14G12G18G30G 9G22G21G15
 -10650425.88949  -7869008.98146  22550088.885    22550089.558    22550091.863
 -14580827.04149 -11300600.96846  22797091.623    22797092.581    22797094.314
 -24589653.90449 -19119840.48147  20327101.150    20327100.871    20327102.818
  -1516871.38649  -1150071.89945  24227638.371    24227638.425    24227641.372
 -23720759.42749 -18401310.13447  20417478.601    20417478.794    20417481.490
 -23440516.69749 -18243418.00347  20866748.177    20866748.521    20866748.502
 -10799420.07449  -8370477.49745  23031177.494    23031177.757    23031179.545
  -3939158.02248  -3032554.25744  24549032.494    24549033.957    24549036.882
 08  8  8  0 16  0.0000000  0  8G14G12G18G30G 9G22G21G15
 -10712478.22849  -7917361.42246  22538280.655    22538280.913    22538283.694
 -14647638.70449 -11352661.97446  22784377.849    22784378.623    22784380.400
 -24569711.88749 -19104301.27947  20330896.025    20330895.704    20330897.750
  -1624792.14249  -1234165.98745  24207101.589    24207102.072    24207103.882
 -23665578.12549 -18358311.71547  20427979.268    20427979.264    20427982.047
 -23491700.83749 -18283301.75447  20857008.159    20857008.204    20857008.333
 -10698493.29249  -8291833.27445  23050383.243    23050383.661    23050385.202
  -3857090.23949  -2968605.37144  24564649.359    24564649.517    24564650.719
 08  8  8  0 16 30.0000000  0  8G14G12G18G30G 9G22G21G15
 -10774395.14749  -7965608.34946  22526498.235    22526498.050    22526500.200
 -14714073.35049 -11404429.21446  22771735.851    22771736.405    22771738.041
 -24549285.24349 -19088384.43547  20334783.052    20334782.603    20334784.711
  -1732717.84449  -1318263.91045  24186563.879    24186563.201    24186567.574
 -23609882.14749 -18314912.25847  20438577.887    20438578.067    20438580.728
 -23542529.09449 -18322908.19647  20847335.842    20847335.820    20847336.113
 -10597401.83849  -8213060.73045  23069620.262    23069620.024    23069621.697
  -3774993.66549  -2904634.04044  24580271.855    24580270.593    24580275.124
 08  8  8  0 17  0.0000000  0  8G14G12G18G30G 9G22G21G15
 -10836174.37649  -8013747.99446  22514741.947    22514741.719    22514744.339
 -14780125.67049 -11455898.53946  22759166.532    22759166.737    22759168.495
 -24528371.13049 -19072087.74547  20338762.872    20338762.618    20338764.634
  -1840642.88049  -1402361.34445  24166026.217    24166025.739    24166029.806
 -23553671.21449 -18271111.54047  20449274.474    20449274.362    20449277.322
 -23592997.18149 -18362233.98847  20837732.044    20837732.178    20837732.642
 -10496146.51449  -8134160.51045  23088888.545    23088888.075    23088890.422
  -3692865.91449  -2840638.42844  24595900.407    24595901.442    24595902.940
 08  8  8  0 17 30.0000000  0  8G14G12G18G30G 9G22G21G15
 -10897816.23749  -8061780.58846  22503011.850    22503011.259    22503013.755
 -14845793.69749 -11507068.41446  22746670.200    22746670.158    22746672.735
 -24506969.93749 -19055411.51247  20342835.401    20342835.088    20342837.298
  -1948565.05049  -1486456.54245  24145489.282    24145490.015    24145493.528
 -23496948.50349 -18226912.02347  20460068.404    20460068.359    20460071.145
 -23643104.16049 -18401278.40047  20828197.004    20828197.249    20828197.399
 -10394731.43849  -8055135.79345  23108187.237    23108188.174    23108188.122
  -3610708.11049  -2776619.39944  24611534.515    24611535.798    24611538.439
 08  8  8  0 18  0.0000000  0  8G14G12G18G30G 9G22G21G15
 -10959320.49649  -8109705.94646  22491307.901    22491308.021    22491310.772
 -14911074.33549 -11557936.44946  22734247.691    22734247.598    22734249.509
 -24485080.92149 -19038355.15447  20347000.728    20347000.345    20347002.474
  -2056481.08049  -1570546.94445  24124953.710    24124954.052    24124957.275
 -23439716.22349 -18182315.44447  20470959.323    20470959.370    20470962.007
 -23692847.35749 -18440039.34347  20818731.205    20818731.152    20818731.632
 -10293159.17749  -7975988.60445  23127515.883    23127516.454    23127517.614
  -3528519.97349  -2712576.74644  24627174.200    24627173.662    24627179.078
 08  8  8  0 18 30.0000000  0  8G14G12G18G30G 9G22G21G15
 -11020687.79449  -8157524.57946  22479630.057    22479629.546    22479632.451
 -14975965.33949 -11608500.86946  22721899.385    22721898.877    22721901.469
 -24462704.30849 -19020918.83147  20351258.866    20351258.687    20351260.686
  -2164388.85049  -1654630.92345  24104419.537    24104420.487    24104422.708
 -23381977.43049 -18137324.18047  20481946.732    20481946.673    20481949.360
 -23742225.46749 -18478515.79247  20809334.859    20809335.027    20809335.557
 -10191433.65549  -7896721.98045  23146873.662    23146872.554    23146875.855
  -3446302.49548  -2648511.25444  24642819.739    24642819.921    24642822.168
 08  8  8  0 19  0.0000000  0  8G14G12G18G30G 9G22G21G15
 -11081917.72449  -8205236.18146  22467978.334    22467978.292    22467980.498
 -15040463.93749 -11658759.52246  22709625.693    22709625.793    22709628.256
 -24439839.78049 -19003102.32047  20355609.875    20355609.695    20355611.644
  -2272285.07049  -1738705.86445  24083887.645    24083888.901    24083891.706
 -23323734.53649 -18091940.10947  20493029.952    20493029.881    20493032.707
 -23791236.65549 -18516706.33847  20800008.344    20800008.364    20800009.001
 -10089558.13549  -7817338.49345  23166259.924    23166260.432    23166262.428
  -3364055.63149  -2584422.86944  24658471.029    24658472.475    24658473.870
 08  8  8  0 19 30.0000000  0  8G14G12G18G30G 9G22G21G15
 -11143010.34549  -8252840.80346  22456352.855    22456352.581    22456355.786
 -15104567.23949 -11708710.12946  22697427.297    22697427.088    22697429.523
 -24416486.98049 -18984905.34747  20360053.765    20360053.548    20360055.469
  -2380166.77749  -1822769.52845  24063358.467    24063358.574    24063362.128
 -23264989.77449 -18046164.97447  20504208.752    20504208.752    20504211.807
 -23839878.76849 -18554609.28347  20790752.086    20790752.122    20790752.541
  -9987535.72449  -7737840.53445  23185674.311    23185672.833    23185676.643
  -3281779.76048  -2520311.87744  24674127.765    24674127.547    24674130.767
 08  8  8  0 20  0.0000000  0  8G14G12G18G30G 9G22G21G15
 -11203965.48049  -8300338.29046  22444753.479    22444753.431    22444756.543
 -15168272.69849 -11758350.73946  22685304.551    22685305.400    22685306.601
 -24392645.54449 -18966327.63447  20364590.672    20364590.278    20364592.426
  -2488031.65449  -1906820.07845  24042832.377    24042832.803    24042836.559
 -23205746.28449 -18000001.22847  20515482.486    20515482.507    20515485.162
 -23888149.95749 -18592223.20247  20781566.329    20781566.271    20781567.225
  -9885369.43549  -7658230.47545  23205115.773    23205115.603    23205118.254
  -3199475.26649  -2456178.59244  24689789.773    24689791.133    24689792.220
 08  8  8  0 20 30.0000000  0  8G14G12G18G30G 9G22G21G15
 -11264782.14649  -8347727.89646  22433180.428    22433180.842    22433182.787
 -15231576.10749 -11807678.04946  22673258.384    22673258.720    22673261.278
 -24368314.05549 -18947368.04947  20369220.761    20369220.452    20369222.573
  -2595875.27149  -1990854.05145  24022310.218    24022310.391    24022314.378
 -23146005.50149 -17953449.96547  20526850.746    20526850.367    20526853.460
 -23936047.18749 -18629545.71147  20772451.772    20772451.831    20772452.663
  -9783061.22849  -7578509.82145  23224584.291    23224583.525    23224586.643
  -3117140.49949  -2392021.70444  24705457.461    24705459.786    24705460.295
 08  8  8  0 21  0.0000000  0  8G14G12G18G30G 9G22G21G15
 -11325461.76549  -8395010.72246  22421633.607    22421634.455    22421636.282
 -15294476.27649 -11856691.16546  22661288.934    22661289.266    22661290.659
 -24343494.04349 -18928027.80947  20373943.880    20373943.592    20373945.623
  -2703695.92449  -2074870.14145  24001792.520    24001792.355    24001796.023
 -23085771.36449 -17906514.28247  20538312.876    20538312.812    20538315.699
 -23983569.86549 -18666576.37547  20763408.527    20763408.621    20763409.074
  -9680615.84249  -7498682.27645  23244078.984    23244078.729    23244080.806
  -3034778.00149  -2327843.24044  24721130.469    24721128.649    24721133.355
 08  8  8  0 21 30.0000000  0  8G14G12G18G30G 9G22G21G15
 -11386003.52849  -8442186.12846  22410112.971    22410112.592    22410115.667
 -15356970.36049 -11905387.84146  22649396.704    22649396.529    22649398.636
 -24318184.22749 -18908305.91547  20378760.179    20378760.118    20378762.140
  -2811490.13949  -2158865.63045  23981279.895    23981281.424    23981283.547
 -23025045.52649 -17859195.45347  20549868.691    20549868.822    20549871.419
 -24030715.56449 -18703313.28447  20754436.980    20754437.302    20754437.607
  -9578035.80949  -7418749.81645  23263599.462    23263599.835    23263601.176
  -2952387.15148  -2263642.61444  24736809.089    24736809.293    24736813.227
 08  8  8  0 22  0.0000000  0  8G14G12G18G30G 9G22G21G15
 -11446407.22649  -8489253.94646  22398618.516    22398618.849    22398620.975
 -15419055.42349 -11953765.81046  22637582.182    22637581.948    22637584.751
 -24292384.46849 -18888202.23447  20383669.825    20383669.519    20383671.600
  -2919254.85149  -2242838.11245  23960773.145    23960772.682    23960776.702
 -22963830.57549 -17811495.49347  20561517.519    20561517.378    20561520.344
 -24077482.32749 -18739754.91247  20745537.636    20745537.903    20745538.192
  -9475324.65449  -7338715.19945  23283144.901    23283145.374    23283146.545
  -2869968.20749  -2199420.10644  24752492.926    24752494.675    24752497.696
 08  8  8  0 22 30.0000000  0  8G14G12G18G30G 9G22G21G15
 -11506670.61349  -8536212.42246  22387150.749    22387150.678    22387152.979
 -15480726.52349 -12001821.21246  22625846.446    22625846.872    22625848.555
 -24266092.31549 -18867714.85747  20388673.031    20388672.786    20388674.720
  -3026985.33649  -2326783.90845  23940272.623    23940272.454    23940275.990
 -22902127.34549 -17763415.04947  20573259.248    20573259.199    20573262.018
 -24123866.13949 -18775898.13947  20736711.148    20736711.234    20736711.462
  -9372483.03849  -7258578.89945  23302715.158    23302715.046    23302717.329
  -2787518.92648  -2135173.97144  24768182.417    24768183.353    24768185.969
 08  8  8  0 23  0.0000000  0  8G14G12G18G30G 9G22G21G15
 -11566791.56849  -8583059.92046  22375710.114    22375709.728    22375712.628
 -15541978.48149 -12049550.01546  22614190.632    22614191.421    22614193.587
 -24239305.48049 -18846842.02447  20393770.396    20393770.337    20393772.187
  -3134675.98549  -2410698.71445  23919779.802    23919780.590    23919782.986
 -22839936.03549 -17714954.29747  20585093.882    20585093.776    20585096.460
 -24169862.81149 -18811739.70147  20727958.295    20727958.103    20727958.705
  -9269512.09549  -7178341.81445  23322309.793    23322309.631    23322312.066
  -2705037.37548  -2070902.70344  24783877.977    24783880.666    24783881.610
 08  8  8  0 23 30.0000000  0  8G14G12G18G30G 9G22G21G15
 -11626776.59049  -8629801.47546  22364295.274    22364295.520    22364297.368
 -15602815.73749 -12096955.65646  22602613.644    22602613.886    22602616.189
 -24212030.56449 -18825588.84947  20398960.690    20398960.344    20398962.371
  -3242330.37249  -2494585.23645  23899293.666    23899293.344    23899297.148
 -22777265.80949 -17666120.35347  20597019.573    20597019.700    20597022.198
 -24215477.21649 -18847283.39347  20719278.079    20719278.122    20719278.430
  -9166421.63649  -7098011.61045  23341927.024    23341925.951    23341928.753
  -2622530.55848  -2006611.73144  24799578.655    24799580.408    24799583.383
 08  8  8  0 24  0.0000000  0  8G14G12G18G30G 9G22G21G15
 -11686624.67749  -8676436.34046  22352906.488    22352905.805    22352908.572
 -15663234.65349 -12144035.33546  22591116.417    22591116.965    22591118.748
 -24184266.30849 -18803954.38147  20404244.052    20404243.676    20404245.687
  -3349944.74649  -2578440.58545  23878815.320    23878816.559    23878818.945
 -22714118.54349 -17616914.69747  20609036.100    20609036.131    20609038.932
 -24260706.33549 -18882526.87347  20710671.281    20710671.261    20710671.671
  -9063213.66149  -7017589.84545  23361566.802    23361566.794    23361568.540
  -2539997.71948  -1942300.50844  24815284.213    24815284.226    24815290.442
 08  8  8  0 24 30.0000000  0  8G14G12G18G30G 9G22G21G15
 -11746334.86149  -8722963.74546  22341544.067    22341544.091    22341546.187
 -15723231.99349 -12190786.51746  22579699.284    22579699.879    22579701.698
 -24156011.62349 -18781937.75247  20409620.741    20409620.484    20409622.492
  -3457515.28749  -2662261.77845  23858345.414    23858345.621    23858349.048
 -22650496.11849 -17567338.78147  20621143.011    20621142.920    20621145.649
 -24305547.57249 -18917468.10147  20702138.266    20702138.268    20702138.772
  -8959890.65849  -6937078.41845  23381228.482    23381228.083    23381230.075
  -2457438.11948  -1877968.36244  24830994.780    24830996.109    24830997.367
 08  8  8  0 25  0.0000000  0  8G14G12G18G30G 9G22G21G15
 -11805908.39249  -8769384.66946  22330207.561    22330207.889    22330210.503
 -15782805.99749 -12237207.84546  22568362.733    22568363.197    22568365.275
 -24127268.06949 -18759540.17347  20415090.451    20415090.167    20415092.146
  -3565040.41349  -2746047.58645  23837884.148    23837885.295    23837888.188
 -22586402.41049 -17517395.63647  20633339.676    20633339.556    20633342.497
 -24350000.46749 -18952106.72747  20693679.158    20693679.144    20693679.728
  -8856457.28649  -6856481.02245  23400911.175    23400910.747    23400912.660
  -2374853.36148  -1813616.68444  24846710.014    24846714.647    24846712.432
 08  8  8  0 25 30.0000000  0  8G14G12G18G30G 9G22G21G15
 -11865342.97849  -8815697.30246  22318897.561    22318897.109    22318899.939
 -15841952.14949 -12283295.76646  22557107.638    22557107.579    22557110.410
 -24098033.23749 -18736759.79747  20420653.672    20420653.356    20420655.498
  -3672514.78949  -2829793.84945  23817432.670    23817432.974    23817435.554
 -22521837.89849 -17467085.63147  20645625.830    20645625.861    20645628.812
 -24394060.79649 -18986439.46247  20685294.772    20685294.878    20685295.150
  -8752914.32749  -6775798.22045  23420614.590    23420613.886    23420616.373
  -2292241.48548  -1749243.85644  24862430.559    24862430.518    24862431.644
 08  8  8  0 26  0.0000000  0  8G14G12G18G30G 9G22G21G15
 -11924638.50249  -8861901.56946  22307614.020    22307613.401    22307616.264
 -15900667.48049 -12329047.97946  22545934.471    22545934.584    22545937.010
 -24068306.57349 -18713596.17047  20426310.454    20426310.080    20426312.311
  -3779935.31749  -2913498.14845  23796991.180    23796991.745    23796994.639
 -22456804.90549 -17416410.57447  20658001.202    20658001.173    20658003.956
 -24437726.42949 -19020464.64047  20676985.488    20676985.621    20676986.072
  -8649264.76149  -6695032.36745  23440338.553    23440338.761    23440340.366
  -2209602.54248  -1684849.94344  24878156.546    24878160.418    24878160.797
 08  8  8  0 26 30.0000000  0  8G14G12G18G30G 9G22G21G15
 -11983795.62649  -8907998.02646  22296356.835    22296356.614    22296359.055
 -15958950.58449 -12374463.38646  22534843.527    22534843.852    22534845.708
 -24038089.24649 -18690050.21047  20432060.581    20432060.159    20432062.285
  -3887300.16449  -2997159.04845  23776560.431    23776561.069    23776564.185
 -22391307.08449 -17365373.32347  20670465.047    20670465.075    20670467.691
 -24480996.55649 -19054181.62847  20668751.467    20668751.551    20668752.114
  -8545512.86849  -6614186.77145  23460082.193    23460081.803    23460083.486
  -2126937.56448  -1620435.69644  24893887.839    24893887.081    24893891.155
 08  8  8  0 27  0.0000000  0  8G14G12G18G30G 9G22G21G15
 -12042812.86449  -8953985.47346  22285126.191    22285126.388    22285128.765
 -16016797.66149 -12419539.02746  22523835.640    22523836.223    22523838.015
 -24007379.90249 -18666120.86447  20437904.398    20437904.043    20437906.249
  -3994604.84449  -3080773.06845  23756141.130    23756141.875    23756144.306
 -22325346.20949 -17313975.24147  20683016.992    20683016.755    20683019.591
 -24523868.03749 -19087587.98947  20660593.344    20660593.569    20660593.894
  -8441660.16549  -6533262.60045  23479844.832    23479844.632    23479847.399
  -2044245.76348  -1556000.51744  24909623.564    24909621.688    24909624.119
 08  8  8  0 27 30.0000000  0  8G14G12G18G30G 9G22G21G15
 -12101689.89249  -8999863.67346  22273922.249    22273922.215    22273925.240
 -16074205.60149 -12464272.47046  22512911.158    22512911.366    22512913.389
 -23976178.12849 -18641807.81047  20443841.933    20443841.613    20443843.850
  -4101845.94249  -3164337.53645  23735733.731    23735733.893    23735736.757
 -22258924.34449 -17262217.95447  20695656.573    20695656.455    20695659.419
 -24566338.39249 -19120681.78247  20652511.469    20652511.434    20652512.089
  -8337709.85649  -6452262.39845  23499625.827    23499625.688    23499627.291
  -1961526.81248  -1491544.26144  24925364.085    24925364.599    24925366.770
 08  8  8  0 28  0.0000000  0  8G14G12G18G30G 9G22G21G15
 -12160427.48249  -9045633.21546  22262744.882    22262745.052    22262747.430
 -16131172.79249 -12508662.48946  22502070.688    22502070.990    22502072.941
 -23944484.73649 -18617111.67047  20449873.028    20449872.778    20449874.876
  -4209020.97549  -3247850.54045  23715338.914    23715339.072    23715342.010
 -22192044.85049 -17210104.08347  20708383.355    20708383.335    20708386.056
 -24608406.71449 -19153462.29647  20644506.117    20644506.136    20644506.699
  -8233665.65549  -6371189.02145  23519424.712    23519424.611    23519427.307
  -1878781.67048  -1427067.55444  24941110.230    24941109.759    24941110.557
 08  8  8  0 28 30.0000000  0  8G14G12G18G30G 9G22G21G15
 -12219025.09649  -9091293.69946  22251594.077    22251593.792    22251596.500
 -16187696.63349 -12552707.04446  22491314.636    22491314.797    22491317.179
 -23912299.32149 -18592032.14947  20455997.754    20455997.568    20455999.630
  -4316126.80349  -3331309.60345  23694957.078    23694956.933    23694960.844
 -22124710.35049 -17157635.62447  20721196.733    20721196.704    20721199.365
 -24650071.14149 -19185928.09147  20636577.633    20636577.914    20636578.315
  -8129530.63649  -6290044.89045  23539240.909    23539241.192    23539242.730
  -1796009.93048  -1362570.10644  24956861.485    24956861.454
 08  8  8  0 29  0.0000000  0  8G14G12G18G30G 9G22G21G15
 -12277482.55249  -9136844.95746  22240469.927    22240469.184    22240472.696
 -16243774.12349 -12596403.79846  22480643.344    22480643.235    22480645.963
 -23879621.98849 -18566569.29947  20462216.117    20462215.803    20462217.750
  -4423160.30549  -3414712.30245  23674589.165    23674589.423    23674592.669
 -22056923.29949 -17104814.56147  20734096.193    20734096.324    20734099.097
 -24691329.82549 -19218077.71747  20628726.383    20628726.380    20628726.818
  -8025307.88149  -6208832.39545  23559073.874    23559073.633    23559076.931
  -1713212.14758  -1298052.34944  24972617.142    24972621.094
 08  8  8  0 29 30.0000000  0  8G14G12G18G30G 9G22G21G15
 -12335800.69649  -9182287.65846  22229372.248    22229372.006    22229374.706
 -16299403.74249 -12639751.55946  22470057.306    22470057.413    22470059.993
 -23846453.47749 -18540723.72747  20468527.891    20468527.483    20468529.655
  -4530119.09549  -3498056.78645  23654235.652    23654235.973    23654238.567
 -21988687.22349 -17051643.56747  20747081.028    20747080.995    20747083.875
 -24732181.27849 -19249910.02647  20620952.620    20620952.791    20620953.007
  -7921001.00849  -6127554.33845  23578922.912    23578923.341    23578924.267
  -1630389.34148  -1233515.10044
 08  8  8  0 30  0.0000000  0  8G14G12G18G30G 9G22G21G15
 -12393978.63849  -9227621.13346  22218301.309    22218301.060    22218304.435
 -16354582.54049 -12682748.04046  22459557.251    22459557.362    22459559.835
 -23812793.35849 -18514495.07947  20474933.224    20474932.819    20474935.188
  -4636999.84449  -3581340.47745  23633896.803    23633897.183    23633899.777
 -21920004.45849 -16998124.52847  20760150.936    20760151.046    20760153.771
 -24772623.29849 -19281423.30247  20613256.739    20613256.819    20613257.237
  -7816612.67749  -6046212.80945  23598787.415    23598786.780    23598789.157
  -1547540.78748  53592608.21443
 08  8  8  0 30 30.0000000  0  8G14G12G18G30G 9G22G21G15
 -12452016.50549  -9272845.43246  22207257.114    22207257.456    22207259.982
 -16409308.47949 -12725391.63746  22449143.267    22449143.411    22449145.512
 -23778641.82749 -18487883.50647  20481432.044    20481431.660    20481433.959
  -4743799.66549  -3664561.09845  23613573.298    23613573.084    23613576.987
 -21850877.98949 -16944259.74847  20773305.298    20773305.490    20773308.214
 -24812654.43649 -19312616.40147  20605639.062    20605639.453    20605639.520
  -7712146.12849  -5964810.33645  23618666.820    23618665.988    23618668.290
  -1464667.16348  53657176.57243
 08  8  8  0 31  0.0000000  0  8G14G12G18G30G 9G22G21G15
 -12509914.27149  -9317960.55046  22196239.659    22196239.123    22196242.688
 -16463578.94749 -12767680.30746  22438815.824    22438816.161    22438818.334
 -23743998.90949 -18460889.03747  20488024.408    20488024.036    20488026.112
  -4850515.21049  -3747716.06345  23593266.038    23593266.312    23593269.468
 -21781310.03749 -16890050.95747  20786543.667    20786543.785    20786546.345
 -24852272.55749 -19343487.67247  20598100.040    20598100.272    20598100.707
  -7607604.50849  -5883349.35845  23638560.543    23638560.305    23638562.440
  -1381768.37948  53721754.79043
 08  8  8  0 31 30.0000000  0  8G14G12G18G30G 9G22G21G15
 -12567671.53449  -9362966.19246  22185248.877    22185249.331    22185250.256
 -16517391.15649 -12809611.88946  22428575.576    22428575.640    22428578.854
 -23708864.47249 -18433511.57047  20494710.253    20494709.858    20494712.004
  -4957143.48149  -3830803.01745  23572975.513    23572975.489    23572979.057
 -21711303.40349 -16835500.33747  20799865.506    20799865.483    20799867.959
 -24891475.97649 -19374035.79447  20590639.902    20590640.027    20590640.507
  -7502990.32849  -5801831.82345  23658468.064    23658468.083    23658469.676
  -1298844.05848  53808561.33143
 08  8  8  0 32  0.0000000  0  8G14G12G18G30G 9G22G21G15
 -12625288.40849  -9407862.41546  22174284.843    22174285.262    22174286.611
 -16570742.90649 -12851184.68146  22418423.124    22418423.468    22418425.474
 -23673238.93249 -18405751.41447  20501489.556    20501489.184    20501491.236
  -5063681.53149  -3913819.66445  23552701.956    23552702.743    23552706.345
 -21640861.21349 -16780610.32147  20813270.255    20813270.283    20813272.736
 -24930262.93849 -19404259.40947  20583258.939    20583258.986    20583259.580
  -7398307.99749  -5720261.22545  23678388.476    23678387.583    23678389.776
  -1215895.45148  53873198.23243
 08  8  8  0 32 30.0000000  0  8G14G12G18G30G 9G22G21G15
 -12682764.13049  -9452648.66446  22163347.601    22163347.814    22163349.377
 -16623631.48849 -12892396.54646  22408358.817    22408359.376    22408361.477
 -23637122.01449 -18377608.37247  20508362.343    20508362.136    20508364.058
  -5170125.43749  -3996762.95745  23532446.323    23532447.296    23532449.462
 -21569985.35049 -16725382.37647  20826757.472    20826757.376    20826760.118
 -24968631.28449 -19434156.83447  20575957.659    20575957.781    20575958.366
  -7293559.39349  -5638638.95245  23698321.467    23698320.304    23698324.073
  -1132921.71048  53937857.05643
 08  8  8  0 33  0.0000000  0  8G14G12G18G30G 9G22G21G15
 -12740098.59049  -9497324.82646  22152437.151    22152436.627    22152438.807
 -16676054.60549 -12933245.72746  22398383.092    22398383.272    22398385.677
 -23600513.63849 -18349082.37747  20515328.717    20515328.534    20515330.395
  -5276472.52649  -4079630.82245  23512209.231    23512209.626    23512212.476
 -21498678.92849 -16669818.93247  20840326.638    20840326.612    20840329.384
 -25006579.18449 -19463726.62147  20568736.445    20568736.680    20568737.184
  -7188747.54549  -5556967.41845  23718266.289    23718266.935    23718268.183
  -1049923.32048  54024481.33543
 08  8  8  0 33 30.0000000  0  8G14G12G18G30G 9G22G21G15
 -12797292.92849  -9541891.82146  22141553.370    22141552.842    22141555.581
 -16728011.07749 -12973731.27146  22388496.154    22388496.506    22388498.659
 -23563415.59449 -18320174.82547  20522388.224    20522387.687    20522390.091
  -5382720.63149  -4162421.54445  23491990.966    23491991.563    23491994.965
 -21426945.95449 -16613923.11847  20853976.947    20853977.122    20853979.534
 -25044106.06649 -19492968.35047  20561595.356    20561595.504    20561595.972
  -7083877.03849  -5475250.16645  23738222.337    23738222.381    23738224.919
   -966901.87048  54089172.74443
 08  8  8  0 34  0.0000000  0  8G14G12G18G30G 9G22G21G15
 -12854344.99749  -9586347.95146  22130696.669    22130696.817    22130699.434
 -16779496.42349 -13013849.69146  22378698.804    22378699.259    22378700.891
 -23525826.05649 -18290884.27847  20529541.191    20529540.795    20529543.279
  -5488864.98749  -4245131.44645  23471792.589    23471793.645    23471796.049
 -21354787.13349 -16557695.47547  20867708.321    20867708.276    20867711.277
 -25081207.98149 -19521878.94547  20554535.126    20554535.211    20554535.683
  -6978949.41549  -5393488.42645  23758189.383    23758189.578    23758191.770
   -883855.11349  54153882.97543
 08  8  8  0 34 30.0000000  0  8G14G12G18G30G 9G22G21G15
 -12911255.16649  -9630693.53546  22119866.973    22119866.485    22119869.132
 -16830509.14149 -13053599.85946  22368991.367    22368991.439    22368993.140
 -23487745.40749 -18261211.05847  20536787.683    20536787.438    20536789.569
  -5594902.71349  -4327758.25745  23451614.450    23451614.675    23451617.286
 -21282205.59749 -16501138.43947  20881520.127    20881519.985    20881522.790
 -25117883.94349 -19550457.61747  20547555.963    20547556.163    20547556.363
  -6873967.84549  -5311684.63345  23778166.953    23778165.858    23778171.334
   -800783.64349  54240378.62643
 08  8  8  0 35  0.0000000  0  8G14G12G18G30G 9G22G21G15
 -12968023.18049  -9674928.35646  22109064.187    22109064.063    22109066.856
 -16881046.42749 -13092979.56646  22359374.426    22359374.427    22359376.554
 -23449174.16449 -18231155.54947  20544127.543    20544127.197    20544129.365
  -5700831.06749  -4410299.82845  23431456.913    23431456.840    23431460.249
 -21209204.17549 -16444254.22047  20895411.883    20895411.797    20895414.624
 -25154132.27349 -19578703.07247  20540658.078    20540657.968    20540658.572
  -6768935.08549  -5229840.94645  23798154.007    23798152.842    23798156.571
   -717687.69849  54305120.76043
 08  8  8  0 35 30.0000000  0  8G14G12G18G30G 9G22G21G15
 -13024649.41849  -9719052.69646  22098288.634    22098288.773    22098291.097
 -16931106.52649 -13131987.43146  22349848.337    22349848.162    22349850.572
 -23410112.86749 -18200718.16847  20551560.608    20551560.281    20551562.722
  -5806647.00549  -4492753.79945  23411320.719    23411320.200    23411323.934
 -21135786.03749 -16387045.27947  20909382.886    20909382.905    20909385.541
 -25189951.71449 -19606614.33147  20533841.810    20533841.827    20533842.419
  -6663854.42449  -5147959.96245  23818150.072    23818150.827    23818151.658
   -634568.22548  54369858.94943
 08  8  8  0 36  0.0000000  0  8G14G12G18G30G 9G22G21G15
 -13081132.18149  -9763065.22846  22087540.381    22087540.344    22087543.262
 -16980686.06949 -13170620.84546  22340413.690    22340414.023    22340416.083
 -23370560.41149 -18169898.07747  20559087.265    20559086.930    20559089.173
  -5912346.15949  -4575116.76345  23391206.807    23391207.274    23391209.576
 -21061952.52949 -16329512.68747  20923432.858    20923433.039    20923435.501
 -25225338.75249 -19634188.66147  20527107.935    20527108.219    20527108.453
  -6558728.15749  -5066043.40845  23838154.850    23838152.620    23838158.268
   -551423.79448  54456364.09943
 08  8  8  0 36 30.0000000  0  8G14G12G18G30G 9G22G21G15
 -13137473.39549  -9806967.45346  22076818.978    22076819.346    22076821.396
 -17029784.41649 -13208879.28046  22331070.554    22331070.931    22331072.848
 -23330518.72649 -18138696.77247  20566706.966    20566706.575    20566708.794
  -6017926.98149  -4657387.51845  23371115.578    23371115.873    23371118.170
 -20987708.18949 -16271659.95447  20937561.079    20937560.968    20937563.712
 -25260293.64549 -19661426.25447  20520456.301    20520456.394    20520456.774
  -6453561.00849  -4984095.02545  23858167.522    23858168.294    23858170.198
   -468256.13248  54521170.25443
 08  8  8  0 37  0.0000000  0  8G14G12G18G30G 9G22G21G15
 -13193671.47849  -9850758.13546  22066124.835    22066124.910    22066127.228
 -17078398.52449 -13246760.39646  22321819.616    22321820.235    22321822.154
 -23289987.29249 -18107113.85647  20574419.807    20574419.396    20574421.974
  -6123385.81849  -4739563.24945  23351047.416    23351047.676    23351050.541
 -20913054.76749 -16213488.45747  20951767.126    20951767.173    20951770.212
 -25294813.83749 -19688325.11447  20513887.339    20513887.431    20513887.802
  -6348354.82149  -4902116.18745  23878187.743    23878187.805    23878191.680
   -385064.64048  54585994.60943
 08  8  8  0 37 30.0000000  0  8G14G12G18G30G 9G22G21G15
 -13249726.87449  -9894437.64046  22055457.908    22055457.694    22055460.312
 -17126526.45749 -13284262.68546  22312661.243    22312661.576    22312663.212
 -23248966.81749 -18075149.85947  20582225.760    20582225.482    20582227.743
  -6228719.86749  -4821641.72045  23331002.755    23331002.713    23331006.555
 -20837995.61649 -16155000.81647  20966050.373    20966050.485    20966053.309
 -25328897.65149 -19714883.94747  20507401.407    20507401.511    20507402.011
  -6243113.14549  -4820109.70745  23898214.648    23898214.870    23898217.927
   -301850.02848  54650837.09344                                  25241196.089
 08  8  8  0 38  0.0000000  0  8G14G12G18G30G 9G22G21G15
 -13305638.88749  -9938005.42846  22044818.197    22044818.180    22044820.713
 -17174165.37849 -13321383.91146  22303595.828    22303595.942    22303598.542
 -23207457.05849 -18042804.60347  20590124.750    20590124.354    20590126.676
  -6333925.31749  -4903620.01345  23310982.740    23310983.352    23310986.277
 -20762532.94249 -16096198.73347  20980410.489    20980410.664    20980413.272
 -25362543.24949 -19741101.32147  20500998.889    20500999.024    20500999.517
  -6137838.77049  -4738077.78645  23918247.685    23918247.662    23918250.489
   -218611.60348  54715698.13744  25257030.832    25257031.561    25257036.436
 08  8  8  0 38 30.0000000  0  8G14G12G18G30G 9G22G21G15
 -13361407.84849  -9981461.72846  22034205.831    22034206.456    22034207.624
 -17221314.03749 -13358123.13046  22294623.697    22294624.563    22294626.021
 -23165459.57349 -18010079.30447  20598116.630    20598116.401    20598118.630
  -6438999.58049  -4985496.04745  23290987.763    23290988.064    23290991.212
 -20686670.24149 -16037084.94447  20994846.704    20994847.050    20994849.508
 -25395749.69649 -19766976.50647  20494679.924    20494680.058    20494680.378
  -6032535.27449  -4656023.14845  23938286.348    23938287.139    23938289.087
   -135350.49448  54780576.78944  25272875.219    25272876.642    25272877.533
 08  8  8  0 39  0.0000000  0  8G14G12G18G30G 9G22G21G15
 -13417033.52749 -10024806.39046  22023620.667    22023620.365    22023623.097
 -17267969.90349 -13394478.34546  22285745.375    22285746.269    22285747.792
 -23122973.78749 -17976973.50347  20606201.394    20606201.054    20606203.451
  -6543939.21649  -5067267.19245  23271018.514    23271019.039    23271021.919
 -20610409.77949 -15977661.20947  21009358.661    21009358.504    21009361.530
 -25428514.54549 -19792507.57047  20488444.994    20488445.095    20488445.669
  -5927205.23149  -4573947.83045  23958330.075    23958329.434    23958332.751
    -52066.28248  54845473.44744  25288723.805    25288723.311    25288724.832
 08  8  8  0 39 30.0000000  0  7G14G12G18G30G 9G22G21
 -13472515.42549 -10068039.02246  22013062.634    22013061.794    22013064.514
 -17314130.64449 -13430447.74746  22276961.351    22276961.990    22276963.418
 -23080000.31049 -17943487.68147  20614379.006    20614378.763    20614381.104
  -6648741.49549  -5148931.29045  23251075.367    23251075.795    23251079.011
 -20533754.51149 -15917929.83447  21023945.634    21023945.685    21023948.472
 -25460836.61049 -19817693.60547  20482294.286    20482294.373    20482295.158
  -5821851.97149  -4491854.39845  23978378.232    23978378.264    23978382.298
 08  8  8  0 40  0.0000000  0  7G14G12G18G30G 9G22G21
 -13527852.89049 -10111159.11046  22002531.993    22002531.644    22002534.348
 -17359793.48249 -13466029.16646  22268272.018    22268272.656    22268274.183
 -23036538.74949 -17909621.54047  20622649.486    20622649.137    20622651.471
  -6753402.07249  -5230484.96545  23231159.138    23231159.533    23231162.336
 -20456706.74149 -15857892.61047  21038607.411    21038607.365    21038610.287
 -25492713.30149 -19842532.60147  20476228.350    20476228.462    20476229.148
  -5716477.53249  -4409744.47045  23998430.395    23998429.703    23998432.599
 08  8  8  0 40 30.0000000  0  7G14G12G18G30G 9G22G21
 -13583045.34349 -10154166.20046  21992029.296    21992029.435    21992031.917
 -17404956.00349 -13501220.73846  22259677.852    22259677.996    22259679.981
 -22992589.27549 -17875375.20747  20631012.826    20631012.867    20631014.580
  -6857917.55949  -5311925.57645  23211270.482    23211270.252    23211274.284
 -20379268.80449 -15797551.36647  21053343.337    21053343.184    21053346.075
 -25524142.51449 -19867022.91547  20470247.579    20470247.722    20470248.225
  -5611084.53549  -4327620.08245  24018485.971    24018485.998    24018487.945
 08  8  8  0 41  0.0000000  0  7G14G12G18G30G 9G22G21
 -13638094.14349 -10197061.34046  21981553.965    21981554.117    21981556.761
 -17449617.98249 -13536022.28246  22251178.945    22251179.359    22251181.004
 -22948153.95849 -17840750.28347  20639468.658    20639468.453    20639470.397
  -6962286.62549  -5393252.07045  23191409.656    23191409.062    23191412.681
 -20301444.86649 -15736909.33747  21068152.757    21068152.601    21068155.503
 -25555124.83149 -19891164.98747  20464351.889    20464352.124    20464352.548
  -5505677.90649  -4245485.05044  24038544.034    24038542.144    24038547.853
 08  8  8  0 41 30.0000000  0  7G14G12G18G30G 9G22G21
 -13692997.28949 -10239842.99146  21971106.229    21971105.990    21971108.534
 -17493775.22049 -13570430.50246  22242776.180    22242776.836    22242778.620
 -22903231.32449 -17805745.64447  20648017.149    20648016.765    20648018.894
  -7066504.02649  -5474460.38445  23171577.618    23171578.540    23171580.943
 -20223235.75849 -15675967.17447  21083035.376    21083034.959    21083038.549
 -25585655.96149 -19914955.48947  20458542.021    20458542.266    20458542.796
  -5400258.18249  -4163339.84844  24058604.837    24058604.675    24058606.820
 08  8  8  0 42  0.0000000  0  7G14G12G18G30G 9G22G21
 -13747757.62349 -10282513.36946  21960685.621    21960685.714    21960688.342
 -17537428.74049 -13604446.21746  22234469.194    22234469.497    22234471.441
 -22857825.15149 -17770364.21647  20656657.671    20656657.474    20656659.359
  -7170569.86549  -5555550.61745  23151774.604    23151775.000    23151778.028
 -20144647.57649 -15614729.63747  21097990.180    21097990.105    21097993.450
 -25615737.87849 -19938395.95047  20452817.627    20452817.789    20452818.028
  -5294832.14649  -4081189.73845  24078666.997    24078668.015    24078667.684
 08  8  8  0 42 30.0000000  0  8G14G12G31G18G30G 9G22G21
 -13802372.46849 -10325070.38146  21950292.803    21950293.108    21950294.846
 -17580574.37349 -13638066.19046  22226258.835    22226259.261    22226260.610
  -5404264.91149  -4190682.65545  25108784.248    25108786.259    25108785.880
 -22811933.54249 -17734604.52747  20665390.621    20665390.188    20665392.416
  -7274478.80249  -5636518.58245  23132001.333    23132001.109    23132004.805
 -20065681.19249 -15553197.39147  21113016.967    21113017.052    21113019.974
 -25645366.29549 -19961483.03147  20447179.577    20447179.652    20447180.020
  -5189400.24049  -3999035.03845  24098730.321    24098731.385    24098732.719
 08  8  8  0 43  0.0000000  0  8G14G12G31G18G30G 9G22G21
 -13856840.89849 -10367513.29446  21939927.843    21939927.694    21939929.879
 -17623209.21249 -13671288.12646  22218145.703    22218145.798    22218147.967
  -5507930.10349  -4271460.65145  25089057.433    25089057.847    25089059.571
 -22765556.33149 -17698466.44347  20674215.908    20674215.478    20674217.658
  -7378226.93649  -5717361.25245  23112258.700    23112258.516    23112262.296
 -19986338.11249 -15491371.61847  21128115.457    21128115.260    21128118.260
 -25674539.18449 -19984215.16147  20441628.189    20441628.455    20441628.647
  -5083964.67949  -3916877.48745  24118794.084    24118793.826    24118797.547
 08  8  8  0 43 30.0000000  0  8G14G12G31G18G30G 9G22G21
 -13911163.60149 -10409842.67746  21929590.664    21929590.161    21929593.293
 -17665332.17549 -13704111.20246  22210129.846    22210130.397    22210131.793
  -5611479.42949  -4352148.41045  25069352.350    25069350.959    25069353.338
 -22718694.85249 -17661951.02247  20683133.310    20683133.015    20683135.097
  -7481811.71549  -5798076.62546  23092547.011    23092547.342    23092550.585
 -19906622.35349 -15429255.45147  21143284.845    21143285.148    21143287.659
 -25703255.87449 -20006591.81847  20436163.576    20436163.748    20436164.051
  -4978529.48449  -3834720.20245  24138857.718    24138856.777    24138858.618
 08  8  8  0 44  0.0000000  0  8G14G12G31G18G30G 9G22G21
 -13965340.06749 -10452058.09146  21919281.226    21919280.748    21919283.923
 -17706940.59649 -13736533.33647  22202211.949    22202212.218    22202214.001
  -5714910.44449  -4432743.94345  25049669.784    25049670.424    25049671.639
 -22671348.82149 -17625058.01247  20692142.979    20692142.768    20692144.624
  -7585229.30949  -5878661.73946  23072867.342    23072867.047    23072871.593
 -19826535.62449 -15366850.21147  21158524.871    21158524.738    21158527.898
 -25731513.86749 -20028611.04247  20430786.238    20430786.281    20430786.940
  -4873096.61849  -3752564.77545  24158920.954    24158920.777    24158923.393
 08  8  8  0 44 30.0000000  0  8G14G12G31G18G30G 9G22G21
 -14019369.76549 -10494159.14546  21908999.509    21908998.736    21909001.593
 -17748033.02549 -13768553.39547  22194392.375    22194392.822    22194394.416
  -5818222.44349  -4513246.73745  25030010.028    25030010.544    25030011.496
 -22623519.51249 -17587788.43247  20701244.640    20701244.557    20701246.686
  -7688477.29949  -5959114.68946  23053219.882    23053220.747    23053223.294
 -19746081.24049 -15304158.48247  21173834.870    21173834.749    21173837.783
 -25759312.21849 -20050272.11147  20425496.356    20425496.593    20425496.907
  -4767670.01549  -3670414.23344  24178983.165    24178985.017    24178984.052
 08  8  8  0 45  0.0000000  0  8G14G12G31G18G30G 9G22G21
 -14073253.20549 -10536146.25246  21898745.732    21898745.414    21898747.841
 -17788607.77949 -13800170.08047  22186671.274    22186671.787    22186673.364
  -5921413.89049  -4593655.59745  25010373.250    25010373.569    25010375.769
 -22575207.71149 -17550142.90447  20710438.102    20710437.722    20710439.813
  -7791552.57349  -6039433.05646  23033605.226    23033605.777    23033609.554
 -19665262.45149 -15241182.81147  21189214.217    21189214.372    21189217.093
 -25786649.82849 -20071574.15547  20420294.211    20420294.384    20420294.837
  -4662252.29749  -3588270.57744  24199043.658    24199041.222    24199046.259
 08  8  8  0 45 30.0000000  0  8G14G12G31G18G30G 9G22G21
 -14126989.99949 -10578019.06546  21888519.989    21888519.913    21888522.545
 -17828662.93649 -13831381.87847  22179048.981    22179049.054    22179051.307
  -6024483.72449  -4673969.68645  24990759.509    24990759.887    24990761.098
 -22526414.01749 -17512121.85947  20719723.245    20719722.894    20719725.086
  -7894451.92349  -6119614.33546  23014024.111    23014025.222    23014027.531
