     2              OBSERVATION DATA    M (MIXED)           RINEX VERSION / TYPE
TEQC  2016APR1      BJFS                20180908  0:25:     PGM / RUN BY / DATE 
LINUX 2.4.21-27.ELSMP|OPTERON|GCC|LINUX X86_64|=+           COMMENT             
BIT 2 OF LLI FLAGS DATA COLLECTED UNDER A/S CONDITION       COMMENT             
 SNR IS MAPPED TO RINEX SNR FLAG VALUE [0-9]                COMMENT             
  L1 & L2: MIN(MAX(INT(SNR_DBHZ/6), 0), 9)                  COMMENT             
  ### PG RNXSMT: RINEX FILE CHANGED                         COMMENT             
BJFS                                                        MARKER NAME         
21601M001                                                   MARKER NUMBER       
GNSS OBSERVER       CASM                                    OBSERVER / AGENCY   
5310K42306          TRIMBLE NETR9       4.85                REC # / TYPE / VERS 
5317361110          TRM59900.00     SCIS                    ANT # / TYPE        
 -2148744.5566  4426641.1140  4044655.7555                  APPROX POSITION XYZ 
        0.0465        0.0000        0.0000                  ANTENNA: DELTA H/E/N
     1     1                                                WAVELENGTH FACT L1/2
     4    L1    L2    C1    P2                              # / TYPES OF OBSERV 
    30                                                      INTERVAL            
  2018     9     7     0     0    0.000000      GPS         TIME OF FIRST OBS   
                                                            END OF HEADER       
 18  9  7  0  0  0.0000000  0 17G01G03G07G08G11G17G18G22G28G30R02R09
                                R15R16R17R18R19
 105909820.64819  82527100.94119  20153992.870 9  20154000.692 9
 125671504.33419  97925816.48619  23914515.974 9  23914523.671 9
 118149208.38219  92064299.24519  22483061.296 9  22483065.963 9
 122727911.49519  95632107.52919  23354368.455 9  23354376.041 9
 107516756.33019  83779274.83919  20459770.378 9  20459774.210 9
 120902749.27619  94209914.66219  23007043.876 9  23007048.914 9
 109843483.84219  85592304.97219  20902535.834 9  20902540.936 9
 121786563.74619  94898609.69319  23175220.976 9  23175223.732 9
 111275677.78719  86708304.70119  21175069.264 9  21175073.095 9
 112948713.18319  88011954.76319  21493448.022 9  21493455.318 9
 126153678.33119  98119513.34519  23641155.064 9  23641158.444 9
 116219386.63919  90392853.82419  21764159.651 9  21764160.363 9
 120887010.45019  94023208.43719  22622372.116 9  22622377.423 9
 103143107.35019  80222408.81019  19308611.302 9  19308613.064 9
 120377172.99419  93626678.86219  22495359.907 9  22495362.477 9
 104879223.52019  81572721.37319  19647419.098 9  19647421.148 9
 110726252.51019  86120412.87619  20699108.860 9  20699110.207 9
 18  9  7  0  0 30.0000000  0 17G01G03G07G08G11G17G18G22G28G30R02R09
                                R15R16R17R18R19
 105918889.641 9  82534167.694 9  20155718.638 9  20155726.459 9
 125577302.546 9  97852412.505 9  23896589.962 9  23896597.657 9
 118245717.699 9  92139501.301 9  22501426.416 9  22501431.084 9
 122805054.966 9  95692219.302 9  23369048.386 9  23369055.978 9
 107556810.198 9  83810485.649 9  20467392.373 9  20467396.204 9
 120841538.114 9  94162217.685 9  22995395.754 9  22995400.785 9
 109906154.371 9  85641139.144 9  20914461.644 9  20914466.747 9
 121723580.285 9  94849531.691 9  23163235.607 9  23163238.358 9
 111223794.946 9  86667876.520 9  21165196.283 9  21165200.112 9
 113000480.141 9  88052292.642 9  21503298.954 9  21503306.253 9
 126095788.906 9  98074488.154 9  23630306.671 9  23630310.072 9
 116113732.610 9  90310678.501 9  21744374.022 9  21744374.725 9
 121014941.052 9  94122709.994 9  22646312.600 9  22646317.913 9
 103163876.589 9  80238562.645 9  19312499.360 9  19312501.126 9
 120479045.084 9  93705912.636 9  22514397.196 9  22514399.784 9
 104918758.496 9  81603470.816 9  19654825.318 9  19654827.365 9
 110667445.809 9  86074674.352 9  20688115.552 9  20688116.894 9
 18  9  7  0  1  0.0000000  0 17G01G03G07G08G11G17G18G22G28G30R02R09
                                R15R16R17R18R19
 105928561.863 9  82541704.491 9  20157559.200 9  20157567.021 9
 125483188.822 9  97779077.171 9  23878680.690 9  23878688.376 9
 118342488.512 9  92214907.108 9  22519841.305 9  22519845.979 9
 122882254.200 9  95752374.517 9  23383738.937 9  23383746.536 9
 107597302.242 9  83842037.894 9  20475097.750 9  20475101.580 9
 120780469.128 9  94114631.489 9  22983774.692 9  22983779.716 9
 109969310.610 9  85690351.788 9  20926479.884 9  20926484.990 9
 121660917.852 9  94800703.832 9  23151311.335 9  23151314.083 9
 111172142.292 9  86627627.710 9  21155367.101 9  21155370.928 9
 113052753.406 9  88093025.047 9  21513246.233 9  21513253.534 9
 126038435.444 9  98029879.920 9  23619558.647 9  23619562.044 9
 116008476.630 9  90228812.770 9  21724662.935 9  21724663.631 9
 121143107.728 9  94222395.112 9  22670297.301 9  22670302.632 9
 103185432.144 9  80255328.057 9  19316534.620 9  19316536.390 9
 120580934.830 9  93785160.169 9  22533437.766 9  22533440.364 9
 104958678.220 9  81634519.492 9  19662303.626 9  19662305.673 9
 110609065.436 9  86029267.399 9  20677201.955 9  20677203.296 9
 18  9  7  0  1 30.0000000  0 17G01G03G07G08G11G17G18G22G28G30R02R09
                                R15R16R17R18R19
 105938835.632 9  82549710.029 9  20159514.231 9  20159522.051 9
 125389165.512 9  97705812.248 9  23860788.653 9  23860796.341 9
 118439516.870 9  92290513.608 9  22538305.197 9  22538309.874 9
 122959507.775 9  95812572.087 9  23398439.819 9  23398447.424 9
 107638230.453 9  83873930.010 9  20482886.127 9  20482889.956 9
 120719540.952 9  94067155.003 9  22972180.435 9  22972185.455 9
 110032949.372 9  85739940.429 9  20938589.941 9  20938595.048 9
 121598578.153 9  94752127.450 9  23139448.479 9  23139451.226 9
 111120720.681 9  86587558.931 9  21145581.887 9  21145585.712 9
 113105530.053 9  88134149.706 9  21523289.296 9  21523296.597 9
 125981621.176 9  97985691.042 9  23608911.680 9  23608915.077 9
 115903621.690 9  90147258.965 9  21705026.946 9  21705027.633 9
 121271505.310 1  94322259.865 1  22694325.182 1  22694330.521 1
 103207773.229 9  80272704.460 9  19320716.915 9  19320718.685 9
 120682839.666 9  93864419.463 9  22552481.137 9  22552483.741 9
 104998979.541 9  81665864.964 9  19669853.422 9  19669855.468 9
 110551110.372 9  85984191.244 9  20666367.863 9  20666369.202 9
 18  9  7  0  2  0.0000000  0 17G01G03G07G08G11G17G18G22G28G30R02R09
                                R15R16R17R18R19
 105949709.431 9  82558183.124 9  20161583.442 9  20161591.261 9
 125295235.537 9  97632620.071 9  23842914.365 9  23842922.050 9
 118536799.798 9  92366318.465 9  22556817.540 9  22556822.222 9
 123036815.174 9  95872811.598 9  23413150.943 9  23413158.553 9
 107679592.401 9  83906160.103 9  20490757.041 9  20490760.870 9
 120658753.781 9  94019788.390 9  22960613.011 9  22960618.027 9
 110097067.880 9  85789902.892 9  20950791.296 9  20950796.405 9
 121536563.709 9  94703804.524 9  23127647.510 9  23127650.252 9
 111069531.635 9  86547671.370 9  21135840.930 9  21135844.753 9
 113158807.815 9  88175664.839 9  21533427.721 9  21533435.024 9
 125925348.719 9  97941923.540 9  23598366.272 9  23598369.678 9
 115799171.928 9  90066020.290 9  21685466.840 9  21685467.520 9
 121400130.554 9  94422301.710 9  22718395.652 9  22718400.993 9
 103230899.154 9  80290691.270 9  19325046.152 9  19325047.927 9
 120784757.556 9  93943688.884 9  22571526.967 9  22571529.583 9
 105039659.882 9  81697505.236 9  19677474.215 9  19677476.260 9
 110493580.239 9  85939445.608 9  20655613.195 9  20655614.529 9
 18  9  7  0  2 30.0000000  0 17G01G03G07G08G11G17G18G22G28G30R02R09
                                R15R16R17R18R19
 105961180.995 9  82567122.007 9  20163766.407 9  20163774.225 9
 125201400.704 9  97559502.055 9  23825058.163 9  23825065.839 9
 118634332.643 9  92442318.066 9  22575377.437 9  22575382.124 9
 123114174.388 9  95933091.487 9  23427871.926 9  23427879.540 9
 107721385.292 9  83938725.986 9  20498709.969 9  20498713.799 9
 120598106.057 9  93972530.431 9  22949072.127 9  22949077.141 9
 110161662.338 9  85840236.229 9  20963083.218 9  20963088.329 9
 121474876.028 9  94655736.217 9  23115908.722 9  23115911.461 9
 111018575.451 9  86507965.252 9  21126144.291 9  21126148.114 9
 113212583.140 9  88217567.676 9  21543660.836 9  21543668.141 9
 125869620.155 9  97898579.191 9  23587922.697 9  23587926.081 9
 115695129.940 9  89985098.755 9  21665983.109 9  21665983.787 9
 121528978.904 9  94522517.041 9  22742507.902 9  22742513.256 9
 103254808.108 9  80309287.105 9  19329521.971 9  19329523.751 9
 120886685.152 9  94022965.852 9  22590574.612 9  22590577.240 9
 105080715.375 9  81729437.306 9  19685165.278 9  19685167.318 9
 110436473.872 9  85895029.569 9  20644937.744 9  20644939.072 9
 18  9  7  0  3  0.0000000  0 17G01G03G07G08G11G17G18G22G28G30R02R09
                                R15R16R17R18R19
 105973250.499 9  82576526.817 9  20166063.156 9  20166070.974 9
 125107665.391 9  97486461.556 9  23807220.922 9  23807228.597 9
 118732113.468 9  92518510.891 9  22593984.529 9  22593989.222 9
 123191586.577 9  95993412.652 9  23442602.992 9  23442610.611 9
 107763608.481 9  83971627.178 9  20506744.770 9  20506748.599 9
 120537598.772 9  93925381.907 9  22937557.966 9  22937562.978 9
 110226731.344 9  85890939.342 9  20975465.444 9  20975470.558 9
 121413518.563 9  94607925.224 9  23104232.771 9  23104235.505 9
 110967855.210 9  86468442.983 9  21116492.553 9  21116496.376 9
 113266855.165 9  88259857.556 9  21553988.466 9  21553995.774 9
 125814440.554 9  97855661.872 9  23577581.954 9  23577585.303 9
 115591501.202 9  89904498.650 9  21646576.758 9  21646577.430 9
 121658047.895 9  94622904.024 9  22766661.411 9  22766666.768 9
 103279501.133 9  80328492.791 9  19334144.557 9  19334146.337 9
 120988622.255 9  94102250.241 9  22609624.014 9  22609626.648 9
 105122145.035 9  81761660.364 9  19692926.457 9  19692928.500 9
 110379792.519 9  85850944.094 9  20634341.747 9  20634343.070 9
 18  9  7  0  3 30.0000000  0 17G01G03G07G08G11G17G18G22G28G30R02R09
                                R15R16R17R18R19
 105985918.060 9  82586397.648 9  20168473.709 9  20168481.526 9
 125014034.020 9  97413502.081 9  23789403.439 9  23789411.105 9
 118830140.338 9  92594895.453 9  22612638.431 9  22612643.127 9
 123269052.506 9  96053775.691 9  23457344.285 9  23457351.910 9
 107806261.935 9  84004863.641 9  20514861.448 9  20514865.276 9
 120477233.103 9  93878343.740 9  22926070.748 9  22926075.757 9
 110292273.702 9  85942011.307 9  20987937.742 9  20987942.856 9
 121352495.323 9  94560374.644 9  23092620.437 9  23092623.172 9
 110917374.174 9  86429107.116 9  21106886.327 9  21106890.150 9
 113321622.991 9  88302533.778 9  21564410.441 9  21564417.751 9
 125759814.072 9  97813174.667 9  23567344.931 9  23567348.266 9
 115488290.757 9  89824223.865 9  21627248.753 9  21627249.423 9
 121787334.919 9  94723460.537 9  22790855.760 9  22790861.131 9
 103304979.184 9  80348309.060 9  19338914.097 9  19338915.874 9
 121090568.114 9  94181541.413 9  22628675.073 9  22628677.719 9
 105163947.616 9  81794173.494 9  19700757.481 9  19700759.521 9
 110323537.042 9  85807189.831 9  20623825.381 9  20623826.705 9
 18  9  7  0  4  0.0000000  0 17G01G03G07G08G11G17G18G22G28G30R02R09
                                R15R16R17R18R19
 105999182.098 9  82596733.258 9  20170997.775 9  20171005.593 9
 124920509.308 9  97340625.702 9  23771606.262 9  23771613.924 9
 118928409.935 9  92671469.144 9  22631338.529 9  22631343.230 9
 123346571.145 9  96114179.791 9  23472095.617 9  23472103.251 9
 107849343.325 9  84038433.552 9  20523059.567 9  20523063.395 9
 120417008.773 9  93831415.732 9  22914610.408 9  22914615.406 9
 110358286.337 9  85993449.716 9  21000499.535 9  21000504.651 9
 121291808.723 9  94513086.396 9  23081072.152 9  23081074.884 9
 110867133.765 9  86389958.753 9  21097325.889 9  21097329.710 9
 113376883.893 9  88345594.209 9  21574926.250 9  21574933.563 9
 125705743.674 9  97771120.030 9  23557212.076 9  23557215.382 9
 115385502.396 9  89744277.411 9  21607999.759 9  21608000.418 9
 121916837.133 9  94824184.452 9  22815090.355 9  22815095.734 9
 103331240.998 9  80368734.881 9  19343830.389 9  19343832.175 9
 121192520.727 9  94260837.854 9  22647727.382 9  22647730.037 9
 105206120.297 9  81826974.459 9  19708657.852 9  19708659.894 9
 110267707.179 9  85763766.649 9  20613388.545 9  20613389.858 9
 18  9  7  0  4 30.0000000  0 17G01G03G07G08G11G17G18G22G28G30R02R09
                                R15R16R17R18R19
 106013040.288 9  82607531.852 9  20173634.897 9  20173642.714 9
 124827093.240 9  97267833.960 9  23753829.776 9  23753837.438 9
 119026917.968 9  92748228.622 9  22650084.006 9  22650088.714 9
 123424140.954 9  96174623.765 9  23486856.686 9  23486864.327 9
 107892849.783 9  84072334.691 9  20531338.568 9  20531342.396 9
 120356924.369 9  93784596.746 9  22903176.703 9  22903181.694 9
 110424765.563 9  86045251.705 9  21013150.115 9  21013155.232 9
 121231460.086 9  94466061.491 9  23069588.183 9  23069590.913 9
 110817134.277 9  86350998.114 9  21087811.302 9  21087815.123 9
 113432634.521 9  88389036.250 9  21585535.247 9  21585542.562 9
 125652231.018 9  97729499.254 9  23547183.696 9  23547186.959 9
 115283138.890 9  89664661.363 9  21588830.354 9  21588831.010 9
 122046549.726 9  94925072.021 9  22839364.301 9  22839369.680 9
 103358284.709 9  80389768.871 9  19348893.034 9  19348894.821 9
 121294477.046 9  94340137.194 9  22666780.371 9  22666783.031 9
 105248659.438 9  81860060.464 9  19716626.862 9  19716628.902 9
 110212302.244 9  85720673.926 9  20603031.173 9  20603032.485 9
 18  9  7  0  5  0.0000000  0 17G01G03G07G08G11G17G18G22G28G30R02R09
                                R15R16R17R18R19
 106027491.128 9  82618792.249 9  20176384.799 9  20176392.615 9
 124733788.615 9  97195129.086 9  23736074.475 9  23736082.130 9
 119125660.905 9  92825171.152 9  22668874.176 9  22668878.888 9
 123501761.217 9  96235107.061 9  23501627.351 9  23501634.998 9
 107936779.129 9  84106565.354 9  20539698.042 9  20539701.868 9
 120296978.968 9  93737886.086 9  22891769.441 9  22891774.422 9
 110491708.498 9  86097415.016 9  21025888.943 9  21025894.064 9
 121171451.654 9  94419301.683 9  23058168.951 9  23058171.679 9
 110767377.173 9  86312226.349 9  21078342.837 9  21078346.656 9
 113488872.355 9  88432857.927 9  21596236.960 9  21596244.277 9
 125599279.693 9  97688314.927 9  23537260.613 9  23537263.867 9
 115181203.933 9  89585378.629 9  21569741.204 9  21569741.857 9
 122176468.665 9  95026120.024 9  22863676.904 9  22863682.297 9
 103386109.911 9  80411410.673 9  19354101.986 9  19354103.779 9
 121396435.163 9  94419437.885 9  22685833.731 9  22685836.407 9
 105291562.492 9  81893429.500 9  19724664.054 9  19724666.096 9
 110157320.946 9  85677910.683 9  20592753.008 9  20592754.323 9
 18  9  7  0  5 30.0000000  0 17G01G03G07G08G11G17G18G22G28G30R02R09
                                R15R16R17R18R19
 106042533.468 9  82630513.562 9  20179247.254 9  20179255.068 9
 124640598.628 9  97122513.544 9  23718340.986 9  23718348.633 9
 119224635.650 9  92902294.303 9  22687708.464 9  22687713.183 9
 123579431.656 9  96295629.467 9  23516407.554 9  23516415.205 9
 107981130.178 9  84141124.620 9  20548137.761 9  20548141.585 9
 120237172.880 9  93691283.970 9  22880388.698 9  22880393.671 9
 110559112.662 9  86149937.733 9  21038715.535 9  21038720.658 9
 121111786.125 9  94372809.077 9  23046814.968 9  23046817.693 9
 110717864.501 9  86273645.051 9  21068920.885 9  21068924.703 9
 113545595.142 9  88477057.493 9  21607030.954 9  21607038.273 9
 125546892.759 1  97647569.604 1  23527443.272 1  23527446.510 1
 115079701.546 9  89506432.357 9  21550733.046 9  21550733.692 9
 122306590.860 9  95127326.153 9  22888027.515 9  22888032.914 9
 103414715.817 9  80433659.701 9  19359457.079 9  19359458.874 9
 121498392.978 9  94498738.408 9  22704886.986 9  22704889.661 9
 105334826.935 9  81927079.629 9  19732768.937 9  19732770.977 9
 110102763.258 9  85635476.976 9  20582553.987 9  20582555.290 9
 18  9  7  0  6  0.0000000  0 17G01G03G07G08G11G17G18G22G28G30R02R09
                                R15R16R17R18R19
 106058166.897 9  82642695.458 9  20182222.195 9  20182230.008 9
 124547527.348 9  97049990.495 9  23700630.090 9  23700637.731 9
 119323839.854 9  92979596.258 9  22706586.413 9  22706591.137 9
 123657152.414 9  96356191.065 9  23531197.347 9  23531205.005 9
 108025901.592 9  84176011.438 9  20556657.476 9  20556661.300 9
 120177506.798 9  93644790.933 9  22869034.610 9  22869039.580 9
 110626976.067 9  86202818.301 9  21051629.517 9  21051634.642 9
 121052466.728 9  94326586.179 9  23035526.856 9  23035529.578 9
 110668598.841 9  86235256.221 9  21059545.945 9  21059549.764 9
 113602801.483 9  88521633.854 9  21617916.965 9  21617924.286 9
 125495074.242 9  97607266.358 9  23517732.472 9  23517735.698 9
 114978636.876 9  89427826.505 9  21531806.878 9  21531807.524 9
 122436913.952 9  95228688.524 9  22912415.730 9  22912421.137 9
 103444102.518 9  80456516.016 9  19364958.337 9  19364960.134 9
 121600350.133 9  94578038.342 9  22723940.173 9  22723942.867 9
 105378451.291 9  81961009.686 9  19740941.247 9  19740943.287 9
 110048630.040 9  85593373.358 9  20572434.356 9  20572435.659 9
 18  9  7  0  6 30.0000000  0 17G01G03G07G08G11G17G18G22G28G30R02R09
                                R15R16R17R18R19
 106074390.857 9  82655337.517 9  20185309.502 9  20185317.312 9
 124454578.555 9  96977562.904 9  23682942.493 9  23682950.124 9
 119423271.221 9  93057075.227 9  22725507.587 9  22725512.316 9
 123734924.051 9  96416792.324 9  23545996.810 9  23546004.472 9
 108071092.353 9  84211225.016 9  20565256.994 9  20565260.818 9
 120117981.058 9  93598407.281 9  22857707.207 9  22857712.166 9
 110695296.951 9  86256055.343 9  21064630.557 9  21064635.684 9
 120993496.723 9  94280635.528 9  23024305.235 9  23024307.957 9
 110619582.470 9  86197061.651 9  21050218.436 9  21050222.254 9
 113660489.748 9  88566585.736 9  21628894.687 9  21628902.011 9
 125443827.621 9  97567407.934 9  23508128.833 9  23508132.046 9
 114878014.339 9  89349564.558 9  21512963.490 9  21512964.130 9
 122567434.560 9  95330204.523 9  22936840.904 9  22936846.318 9
 103474269.913 9  80479979.533 9  19370605.746 9  19370607.546 9
 121702305.298 9  94657336.780 9  22742992.950 9  22742995.649 9
 105422433.827 9  81995218.316 9  19749180.665 9  19749182.707 9
 109994922.247 9  85551600.644 9  20562394.240 9  20562395.541 9
 18  9  7  0  7  0.0000000  0 17G01G03G07G08G11G17G18G22G28G30R02R09
                                R15R16R17R18R19
 106091202.969 9  82668437.870 9  20188508.736 9  20188516.545 9
 124361754.339 9  96905232.358 9  23665278.623 9  23665286.251 9
 119522925.168 9  93134727.635 9  22744471.116 9  22744475.849 9
 123812744.965 9  96477431.961 9  23560805.664 9  23560813.336 9
 108116699.396 9  84246762.972 9  20573935.725 9  20573939.550 9
 120058594.449 9  93552132.022 9  22846406.295 9  22846411.250 9
 110764071.779 9  86309646.109 9  21077717.978 9  21077723.108 9
 120934877.878 9  94234958.509 9  23013150.437 9  23013153.159 9
 110570816.202 9  86159061.959 9  21040938.526 9  21040942.344 9
 113718656.522 9  88611910.485 9  21639963.463 9  21639970.790 9
 125393155.713 9  97527996.513 9  23498632.893 9  23498636.091 9
 114777836.953 9  89271648.807 9  21494203.489 9  21494204.130 9
 122698148.741 9  95431871.082 9  22961302.300 9  22961307.721 9
 103505216.531 9  80504049.103 9  19376399.033 9  19376400.839 9
 121804255.913 9  94736631.658 9  22762044.892 9  22762047.602 9
 105466771.017 9  82029702.788 9  19757486.522 9  19757488.566 9
 109941637.604 9  85510157.053 9  20552433.224 9  20552434.519 9
 18  9  7  0  7 30.0000000  0 17G01G03G07G08G11G17G18G22G28G30R02R09
                                R15R16R17R18R19
 106108602.009 9  82681995.572 9  20191819.657 9  20191827.464 9
 124269057.932 9  96833001.439 9  23647639.047 9  23647646.664 9
 119622798.856 9  93212551.263 9  22763476.466 9  22763481.205 9
 123890615.154 9  96538109.995 9  23575623.895 9  23575631.576 9
 108162721.691 9  84282624.487 9  20582693.487 9  20582697.315 9
 119999347.035 9  93505965.219 9  22835131.877 9  22835136.829 9
 110833297.778 9  86363588.442 9  21090891.251 9  21090896.382 9
 120876612.429 9  94189556.876 9  23002062.879 9  23002065.597 9
 110522301.893 9  86121258.607 9  21031706.555 9  21031710.373 9
 113777299.591 9  88657606.367 9  21651122.880 9  21651130.211 9
 125343061.283 9  97489034.200 9  23489245.203 9  23489248.395 9
 114678108.918 9  89194082.582 9  21475527.614 9  21475528.249 9
 122829052.807 1  95533685.316 1  22985799.241 1  22985804.671 1
 103536941.510 9  80528724.088 9  19382338.015 9  19382339.820 9
 121906200.156 9  94815921.569 9  22781095.652 9  22781098.375 9
 105511460.521 9  82064461.294 9  19765858.370 9  19765860.413 9
 109888776.784 9  85469043.107 9  20542551.433 9  20542552.722 9
 18  9  7  0  8  0.0000000  0 17G01G03G07G08G11G17G18G22G28G30R02R09
                                R15R16R17R18R19
 106126587.894 9  82696010.560 9  20195242.248 9  20195250.051 9
 124176493.745 9  96760873.532 9  23630024.645 9  23630032.254 9
 119722890.392 9  93290544.656 9  22782523.261 9  22782528.003 9
 123968535.445 9  96598827.103 9  23590451.635 9  23590459.316 9
 108209158.542 9  84318809.041 9  20591530.130 9  20591533.959 9
 119940240.140 9  93459907.934 9  22823884.182 9  22823889.125 9
 110902973.667 9  86417881.338 9  21104150.135 9  21104155.267 9
 120818704.436 9  94144433.774 9  22991043.348 9  22991046.063 9
 110474042.455 9  86083653.851 9  21022523.089 9  21022526.906 9
 113836417.842 9  88703672.526 9  21662372.717 9  21662380.051 9
 125293548.406 9  97450524.236 9  23479966.473 9  23479969.653 9
 114578835.471 9  89116869.922 9  21456936.871 9  21456937.501 9
 122960144.779 9  95635645.717 9  23010331.332 9  23010336.767 9
 103569445.096 9  80554004.660 9  19388422.751 9  19388424.555 9
 122008137.835 9  94895206.385 9  22800145.177 9  22800147.911 9
 105556501.155 9  82099492.899 9  19774295.998 9  19774298.041 9
 109836340.514 9  85428259.359 9  20532749.012 9  20532750.297 9
 18  9  7  0  8 30.0000000  0 18G01G03G07G08G11G17G18G19G22G28G30R02
                                R09R15R16R17R18R19
 106145160.806 9  82710482.967 9  20198776.549 9  20198784.351 9
 124084066.480 9  96688852.310 9  23612436.303 9  23612443.906 9
 119823198.140 9  93368706.512 9  22801611.210 9  22801615.958 9
 124046506.492 9  96659583.736 9  23605289.052 9  23605296.740 9
 108256009.375 9  84355316.183 9  20600445.547 9  20600449.377 9
 119881274.527 9  93413960.713 9  22812663.391 9  22812668.332 9
 110973098.455 9  86472524.022 9  21117494.445 9  21117499.578 9
 131900829.25119 102779851.53619  25099904.532 9  25099908.202 9
 120761157.934 9  94099592.352 9  22980092.606 9  22980095.319 9
 110426041.474 9  86046250.491 9  21013388.805 9  21013392.621 9
 113896010.410 9  88750108.283 9  21673712.814 9  21673720.150 9
 125244622.248 9  97412470.477 9  23470797.792 9  23470800.991 9
 114480022.253 9  89040015.216 9  21438432.316 9  21438432.941 9
 123091422.869 9  95737750.869 9  23034898.258 9  23034903.700 9
 103602728.057 9  80579891.362 9  19394653.424 9  19394655.239 9
 122110068.746 9  94974485.932 9  22819193.441 9  22819196.188 9
 105601892.181 9  82134797.024 9  19782799.271 9  19782801.316 9
 109784330.180 9  85387806.888 9  20523026.221 9  20523027.504 9
 18  9  7  0  9  0.0000000  0 18G01G03G07G08G11G17G18G19G22G28G30R02
                                R09R15R16R17R18R19
 106164313.005 9  82725406.775 9  20202421.079 9  20202428.876 9
 123991772.934 9  96616935.284 9  23594873.408 9  23594881.006 9
 119923712.499 9  93447029.372 9  22820738.469 9  22820743.222 9
 124124522.056 9  96720375.051 9  23620134.946 9  23620142.642 9
 108303266.475 9  84392139.892 9  20609438.278 9  20609442.109 9
 119822444.108 9  93368118.866 9  22801468.306 9  22801473.237 9
 111043662.852 9  86527509.261 9  21130922.407 9  21130927.542 9
 131810871.407 9 102709754.506 9  25082786.130 9  25082789.802 9
 120703968.954 9  94055029.517 9  22969209.900 9  22969212.612 9
 110378294.203 9  86009044.824 9  21004302.802 9  21004306.619 9
 113956068.560 9  88796906.832 9  21685141.507 9  21685148.845 9
 125196279.145 9  97374870.343 9  23461738.273 9  23461741.459 9
 114381666.810 9  88963516.547 9  21420013.494 9  21420014.117 9
 123222877.260 9  95839993.104 9  23059498.206 9  23059503.665 9
 103636783.225 9  80606378.716 9  19401028.622 9  19401030.437 9
 122211984.880 9  95053754.017 9  22838238.921 9  22838241.672 9
 105647624.724 9  82170366.796 9  19791366.505 9  19791368.546 9
 109732739.134 9  85347680.513 9  20513381.824 9  20513383.108 9
 18  9  7  0  9 30.0000000  0 18G01G03G07G08G11G17G18G19G22G28G30R02
                                R09R15R16R17R18R19
 106184048.730 9  82740785.263 9  20206176.662 9  20206184.459 9
 123899621.860 9  96545129.292 9  23577337.612 9  23577345.200 9
 120024435.997 9  93525515.197 9  22839905.527 9  22839910.284 9
 124202586.838 9  96781204.726 9  23634990.199 9  23634997.901 9
 108350933.407 9  84429282.949 9  20618508.999 9  20618512.831 9
 119763754.049 9  93322386.359 9  22790299.954 9  22790304.884 9
 111114669.969 9  86582839.485 9  21144434.610 9  21144439.744 9
 131720986.338 9 102639714.199 9  25065681.566 9  25065685.236 9
 120647145.793 9  94010751.739 9  22958396.805 9  22958399.514 9
 110330808.059 9  85972042.634 9  20995266.489 9  20995270.306 9
 114016595.541 9  88844070.698 9  21696659.420 9  21696666.762 9
 125148527.733 9  97337730.332 9  23452789.697 9  23452792.888 9
 114283778.755 9  88887381.399 9  21401682.202 9  21401682.824 9
 123354509.930 9  95942374.026 9  23084131.497 9  23084136.967 9
 103671615.186 9  80633470.232 9  19407549.245 9  19407551.062 9
 122313890.304 9  95133013.745 9  22857282.419 9  22857285.182 9
 105693702.079 9  82206204.726 9  19799998.356 9  19800000.400 9
 109681572.593 9  85307884.343 9  20503816.758 9  20503818.035 9
 18  9  7  0 10  0.0000000  0 17G01G03G07G08G11G17G18G22G28G30R02R09
                                R15R16R17R18R19
 106204360.831 9  82756612.884 9  20210041.919 9  20210049.713 9
 123807610.725 9  96473432.324 9  23559828.460 9  23559836.043 9
 120125359.716 9  93604157.036 9  22859110.687 9  22859115.449 9
 124280695.154 9  96842068.365 9  23649853.705 9  23649861.403 9
 108399002.589 9  84466739.456 9  20627656.259 9  20627660.091 9
 119705198.894 9  93276758.986 9  22779157.263 9  22779162.188 9
 111186111.424 9  86638508.141 9  21158029.475 9  21158034.611 9
 120590684.771 9  93966756.150 9  22947652.620 9  22947655.326 9
 110283579.229 9  85935240.958 9  20986279.134 9  20986282.949 9
 114077583.193 9  88891593.531 9  21708264.994 9  21708272.339 9
 125101365.556 9  97301048.695 9  23443951.484 9  23443954.661 9
 114186356.273 9  88811608.384 9  21383438.081 9  21383438.697 9
 123486311.671 9  96044886.497 9  23108796.392 9  23108801.860 9
 103707217.258 9  80661160.706 9  19414214.047 9  19414215.871 9
 122415777.636 9  95212259.388 9  22876322.546 9  22876325.323 9
 105740115.945 9  82242304.410 9  19808693.229 9  19808695.271 9
 109630824.711 9  85268413.775 9  20494329.971 9  20494331.247 9
 18  9  7  0 10 30.0000000  0 18G01G03G07G08G11G17G18G19G22G28G30R02
                                R09R15R16R17R18R19
 106225254.972 9  82772894.043 9  20214017.934 9  20214025.726 9
 123715749.768 9  96401852.402 9  23542347.867 9  23542355.439 9
 120226487.895 9  93682958.199 9  22878354.751 9  22878359.517 9
 124358853.935 9  96902971.267 9  23664726.860 9  23664734.569 9
 108447479.135 9  84504513.386 9  20636881.040 9  20636884.873 9
 119646785.366 9  93231241.983 9  22768041.515 9  22768046.431 9
 111257991.636 9  86694518.696 9  21171707.824 9  21171712.961 9
 131541425.308 9 102499796.494 9  25031512.252 9  25031515.927 9
 120534595.885 9  93923050.545 9  22936979.245 9  22936981.945 9
 110236616.419 9  85898646.565 9  20977342.405 9  20977346.219 9
 114139036.230 9  88939479.006 9  21719959.124 9  21719966.471 9
 125054802.310 9  97264832.840 9  23435225.549 9  23435228.726 9
 114089410.658 9  88736206.262 9  21365283.265 9  21365283.875 9
 123618286.812 9  96147533.765 9  23133493.787 9  23133499.271 9
 103743595.386 9  80689454.789 9  19421024.121 9  19421025.949 9
 122517652.440 9  95291495.323 9  22895360.306 9  22895363.088 9
 105786871.265 9  82278669.645 9  19817452.087 9  19817454.131 9
 109580502.355 9  85229274.172 9  20484922.733 9  20484924.006 9
 18  9  7  0 11  0.0000000  0 18G01G03G07G08G11G17G18G19G22G28G30R02
                                R09R15R16R17R18R19
 106246725.605 9  82789624.411 9  20218103.656 9  20218111.447 9
 123624038.095 9  96330388.802 9  23524895.685 9  23524903.247 9
 120327812.512 9  93761912.412 9  22897636.211 9  22897640.985 9
 124437058.371 9  96963909.756 9  23679608.694 9  23679616.411 9
 108496357.789 9  84542600.650 9  20646182.338 9  20646186.170 9
 119588509.332 9  93185832.107 9  22756951.938 9  22756956.850 9
 111330303.843 9  86750865.867 9  21185468.382 9  21185473.519 9
 131451752.864 9 102429921.951 9  25014448.087 9  25014451.740 9
 120478877.276 9  93879633.466 9  22926376.331 9  22926379.028 9
 110189917.300 9  85862257.644 9  20968455.856 9  20968459.669 9
 114200947.995 9  88987721.927 9  21731740.551 9  21731747.901 9
 125008836.863 9  97229081.990 9  23426611.605 9  23426614.769 9
 113992941.779 9  88661174.919 9  21347217.738 9  21347218.346 9
 123750427.558 1  96250309.846 1  23158222.167 1  23158227.663 1
 103780744.353 9  80718348.413 9  19427978.498 9  19427980.330 9
 122619509.026 9  95370717.044 9  22914394.694 9  22914397.493 9
 105833961.314 9  82315295.250 9  19826273.631 9  19826275.673 9
 109530601.458 9  85190462.368 9  20475594.283 9  20475595.555 9
 18  9  7  0 11 30.0000000  0 18G01G03G07G08G11G17G18G19G22G28G30R02
                                R09R15R16R17R18R19
 106268771.710 9  82806803.202 9  20222298.884 9  20222306.674 9
 123532479.330 9  96259044.317 9  23507472.626 9  23507480.186 9
 120429331.672 9  93841018.227 9  22916954.682 9  22916959.462 9
 124515308.732 9  97024884.028 9  23694499.269 9  23694506.994 9
 108545636.980 9  84581000.012 9  20655559.862 9  20655563.696 9
 119530370.920 9  93140529.475 9  22745888.546 9  22745893.452 9
 111403046.048 9  86807548.105 9  21199310.763 9  21199315.900 9
 131362152.185 9 102360103.271 9  24997397.621 9  24997401.266 9
 120423531.978 9  93836507.273 9  22915844.461 9  22915847.155 9
 110143484.311 9  85826076.103 9  20959619.946 9  20959623.756 9
 114263316.586 9  89036320.813 9  21743608.911 9  21743616.265 9
 124963473.187 9  97193799.117 9  23418110.482 9  23418113.650 9
 113896953.929 9  88586517.740 9  21329242.270 9  21329242.868 9
 123882730.334 9  96353212.017 9  23182980.819 9  23182986.312 9
 103818663.554 9  80747841.128 9  19435077.050 9  19435078.881 9
 122721346.183 9  95449923.685 9  22933425.428 9  22933428.235 9
 105881384.340 9  82352179.824 9  19835157.563 9  19835159.606 9
 109481121.378 9  85151977.881 9  20466344.490 9  20466345.757 9
 18  9  7  0 12  0.0000000  0 18G01G03G07G08G11G17G18G19G22G28G30R02
                                R09R15R16R17R18R19
 106291392.273 9  82824429.621 9  20226603.430 9  20226611.217 9
 123441077.082 9  96187821.814 9  23490079.335 9  23490086.889 9
 120531042.515 9  93920273.417 9  22936309.622 9  22936314.404 9
 124593605.158 9  97085894.192 9  23709398.613 9  23709406.347 9
 108595315.182 9  84619710.292 9  20665013.315 9  20665017.151 9
 119472370.356 9  93095334.246 9  22734851.394 9  22734856.296 9
 111476215.523 9  86864563.279 9  21213234.452 9  21213239.590 9
 131272623.521 9 102290340.713 9  24980360.854 9  24980364.491 9
 120368562.735 9  93793674.120 9  22905384.145 9  22905386.832 9
 110097319.470 9  85790103.505 9  20950835.064 9  20950838.874 9
 114326139.941 9  89085274.057 9  21755563.813 9  21755571.172 9
 124918713.896 9  97158986.436 9  23409722.536 9  23409725.679 9
 113801451.624 9  88512238.180 9  21311357.748 9  21311358.344 9
 124015192.191 9  96456237.858 9  23207769.284 9  23207774.789 9
 103857352.314 9  80777932.367 9  19442319.681 9  19442321.516 9
 122823163.088 9  95529114.563 9  22952452.386 9  22952455.205 9
 105929138.324 9  82389321.811 9  19844103.494 9  19844105.537 9
 109432062.839 9  85113821.251 9  20457173.505 9  20457174.770 9
 18  9  7  0 12 30.0000000  0 17G01G03G07G08G11G17G18G22G28G30R02R09
                                R15R16R17R18R19
 106314585.799 9  82842502.507 9  20231017.004 9  20231024.790 9
 123349834.599 9  96116723.796 9  23472716.453 9  23472724.001 9
 120632941.902 9  93999675.515 9  22955700.447 9  22955705.235 9
 124671947.224 9  97146939.932 9  23724306.631 9  23724314.372 9
 108645390.716 9  84658730.185 9  20674542.375 9  20674546.212 9
 119414507.760 9  93050246.530 9  22723840.492 9  22723845.389 9
 111549810.174 9  86921909.753 9  21227239.054 9  21227244.193 9
 120313972.190 9  93751136.048 9  22894995.898 9  22894998.582 9
 110051424.863 9  85754341.478 9  20942101.608 9  20942105.416 9
 114389415.649 9  89134579.782 9  21767604.796 9  21767612.160 9
 124874562.539 9  97124646.544 9  23401448.552 9  23401451.683 9
 113706438.904 9  88438339.421 9  21293564.901 9  21293565.492 9
 124147810.120 1  96559385.096 1  23232586.951 1  23232592.466 1
 103896809.592 9  80808621.364 9  19449706.164 9  19449707.998 9
 122924957.992 9  95608288.313 9  22971475.244 9  22971478.078 9
 105977220.966 9  82426719.427 9  19853110.989 9  19853113.030 9
 109383425.287 9  85075992.066 9  20448081.211 9  20448082.471 9
 18  9  7  0 13  0.0000000  0 17G01G03G07G08G11G17G18G22G28G30R02R09
                                R15R16R17R18R19
 106338350.304 9  82861020.312 9  20235539.233 9  20235547.016 9
 123258754.580 9  96045752.378 9  23455384.482 9  23455392.024 9
 120735026.077 9  94079221.587 9  22975126.448 9  22975131.246 9
 124750334.050 9  97208020.543 9  23739223.173 9  23739230.922 9
 108695861.475 9  84698058.042 9  20684146.647 9  20684150.485 9
 119356782.381 9  93005265.743 9  22712855.697 9  22712860.586 9
 111623826.458 9  86979584.783 9  21241323.882 9  21241329.021 9
 120259762.244 9  93708894.550 9  22884680.074 9  22884682.754 9
 110005801.705 9  85718790.969 9  20933419.807 9  20933423.614 9
 114453140.733 9  89184235.680 9  21779731.285 9  21779738.652 9
 124831020.894 9  97090780.820 9  23393288.867 9  23393291.997 9
 113611919.385 9  88364824.251 9  21275864.423 9  21275865.011 9
 124280580.469 9  96662650.854 9  23257433.163 9  23257438.694 9
 103937033.640 9  80839906.714 9  19457236.205 9  19457238.045 9
 123026729.030 9  95687443.544 9  22990493.610 9  22990496.450 9
 106025629.468 9  82464370.482 9  19862179.535 9  19862181.576 9
 109335208.080 9  85038489.803 9  20439067.507 9  20439068.764 9
 18  9  7  0 13 30.0000000  0 18G01G03G07G08G11G17G18G22G28G30R02R03
                                R09R15R16R17R18R19
 106362686.690 9  82879983.730 9  20240170.293 9  20240178.076 9
 123167842.739 9  95974912.010 9  23438084.513 9  23438092.048 9
 120837294.419 9  94158911.181 9  22994587.484 9  22994592.287 9
 124828768.202 9  97269138.020 9  23754148.729 9  23754156.489 9
 108746728.044 9  84737694.323 9  20693826.238 9  20693830.078 9
 119299196.775 9  92960393.877 9  22701897.494 9  22701902.375 9
 111698264.268 9  87037588.274 9  21255488.924 9  21255494.062 9
 120205937.811 9  93666953.465 9  22874437.602 9  22874440.273 9
 109960454.507 9  85683455.499 9  20924790.515 9  20924794.320 9
 114517315.152 9  89234241.702 9  21791943.285 9  21791950.657 9
 124788094.468 9  97057393.667 9  23385244.423 9  23385247.538 9
 129047174.07219 100370007.24819  24107109.110 9  24107113.294 9
 113517899.485 9  88291697.691 9  21258257.495 9  21258258.076 9
 124413502.091 9  96766034.298 9  23282307.661 9  23282313.202 9
 103978025.731 9  80871789.432 9  19464910.025 9  19464911.869 9
 123128477.331 9  95766581.044 9  23009507.762 9  23009510.618 9
 106074363.853 9  82502275.015 9  19871309.119 9  19871311.158 9
 109287413.319 9  85001316.116 9  20430132.768 9  20430134.022 9
 18  9  7  0 14  0.0000000  0 18G01G03G07G08G11G17G18G22G28G30R02R03
                                R09R15R16R17R18R19
 106387591.509 9  82899390.082 9  20244909.522 9  20244917.306 9
 123077100.294 9  95904203.643 9  23420816.776 9  23420824.304 9
 120939741.871 9  94238740.359 9  23014082.590 9  23014087.395 9
 124907247.089 9  97330290.382 9  23769082.778 9  23769090.542 9
 108797986.848 9  84777636.247 9  20703580.465 9  20703584.305 9
 119241748.857 9  92915629.279 9  22690965.509 9  22690970.386 9
 111773119.039 9  87095916.666 9  21269733.314 9  21269738.452 9
 120152499.223 9  93625313.033 9  22864268.557 9  22864271.222 9
 109915382.832 9  85648334.715 9  20916213.659 9  20916217.464 9
 114581934.452 9  89284594.389 9  21804239.940 9  21804247.315 9
 124745784.372 9  97024485.829 9  23377315.519 9  23377318.630 9
 128946709.611 9 100291868.282 9  24088341.461 9  24088345.631 9
 113424381.195 9  88218961.238 9  21240744.528 9  21240745.110 9
 124546569.700 9  96869531.280 9  23307209.485 9  23307215.037 9
 104019782.573 9  80904266.971 9  19472726.997 9  19472728.842 9
 123230199.223 9  95845698.010 9  23028516.974 9  23028519.844 9
 106123419.920 9  82540429.743 9  19880498.966 9  19880501.003 9
 109240038.522 9  84964469.071 9  20421276.536 9  20421277.785 9
 18  9  7  0 14 30.0000000  0 19G01G03G07G08G11G17G18G19G22G28G30R02
                                R03R09R15R16R17R18R19
 106413058.537 9  82919234.522 9  20249755.735 9  20249763.518 9
 122986525.835 9  95833626.161 9  23403581.016 9  23403588.539 9
 121042360.668 9  94318703.023 9  23033610.324 9  23033615.137 9
 124985765.558 9  97391473.579 9  23784024.365 9  23784032.135 9
 108849630.855 9  84817878.333 9  20713407.991 9  20713411.830 9
 119184433.448 9  92870967.950 9  22680058.727 9  22680063.598 9
 111848383.452 9  87154564.265 9  21284055.652 9  21284060.790 9
 130826078.179 9 101942383.447 9  24895385.993 9  24895389.594 9
 120099444.392 9  93583971.639 9  22854172.533 9  22854175.190 9
 109870583.758 9  85613426.356 9  20907688.671 9  20907692.473 9
 114646991.466 9  89335288.149 9  21816619.891 9  21816627.270 9
 124704088.079 9  96992055.455 9  23369501.596 9  23369504.688 9
 128846368.670 9 100213825.394 9  24069596.882 9  24069601.035 9
 113331363.784 9  88146614.389 9  21223325.335 9  21223325.911 9
 124679775.193 1  96973135.504 1  23332137.112 1  23332142.676 1
 104062297.985 9  80937334.509 9  19480685.975 9  19480687.821 9
 123331888.649 9  95924789.726 9  23047520.118 9  23047523.002 9
 106172790.534 9  82578829.095 9  19889747.757 9  19889749.797 9
 109193078.952 9  84927944.984 9  20412497.923 9  20412499.166 9
 18  9  7  0 15  0.0000000  0 19G01G03G07G08G11G17G18G19G22G28G30R02
                                R03R09R15R16R17R18R19
 106439094.017 9  82939521.909 9  20254710.122 9  20254717.905 9
 122896130.359 9  95763188.140 9  23386379.319 9  23386386.839 9
 121145155.116 9  94398802.568 9  23053171.476 9  23053176.295 9
 125064331.441 9  97452693.713 9  23798974.982 9  23798982.760 9
 108901666.581 9  84858425.657 9  20723310.056 9  20723313.895 9
 119127258.860 9  92826416.343 9  22669178.750 9  22669183.616 9
 111924062.688 9  87213535.094 9  21298456.935 9  21298462.074 9
 130736991.199 9 101872965.003 9  24878433.318 9  24878436.924 9
 120046783.342 9  93542937.093 9  22844151.440 9  22844154.087 9
 109826067.166 9  85578738.098 9  20899217.448 9  20899221.252 9
 114712491.504 9  89386327.121 9  21829084.148 9  21829091.532 9
 124663016.904 9  96960111.241 9  23361804.851 9  23361807.935 9
 128746163.815 9 100135888.365 9  24050877.714 9  24050881.848 9
 113238859.186 9  88074666.368 9  21206002.196 9  21206002.772 9
 124813123.073 9  97076850.457 9  23357091.398 9  23357096.977 9
 104105578.714 9  80970997.290 9  19488788.224 9  19488790.072 9
 123433552.276 9  96003861.388 9  23066518.432 9  23066521.328 9
 106222481.350 9  82617477.518 9  19899056.513 9  19899058.551 9
 109146541.657 9  84891749.327 9  20403798.254 9  20403799.493 9
 18  9  7  0 15 30.0000000  0 19G01G03G07G08G11G17G18G19G22G28G30R02
                                R03R09R15R16R17R18R19
 106465692.134 9  82960247.725 9  20259771.567 9  20259779.348 9
 122805912.915 9  95692888.861 9  23369211.489 9  23369219.003 9
 121248118.607 9  94479033.826 9  23072764.802 9  23072769.630 9
 125142940.034 9  97513947.119 9  23813933.732 9  23813941.521 9
 108954087.769 9  84899273.336 9  20733285.477 9  20733289.315 9
 119070220.446 9  92781970.851 9  22658324.682 9  22658329.541 9
 112000149.514 9  87272823.526 9  21312935.780 9  21312940.919 9
 130647978.082 9 101803604.252 9  24861494.595 9  24861498.172 9
 119994514.383 9  93502208.053 9  22834204.973 9  22834207.616 9
 109781830.832 9  85544268.230 9  20890799.552 9  20890803.355 9
 114778427.788 9  89437706.034 9  21841631.413 9  21841638.799 9
 124622569.133 9  96928651.883 9  23354224.942 9  23354228.021 9
 128646094.945 9 100058057.023 9  24032184.007 9  24032188.141 9
 113146866.913 9  88003116.837 9  21188774.988 9  21188775.560 9
 124946605.139 9  97180669.801 9  23382070.776 9  23382076.365 9
 104149619.026 9  81005250.855 9  19497032.671 9  19497034.522 9
 123535184.425 9  96082908.588 9  23085510.848 9  23085513.750 9
 106272485.821 9  82656369.882 9  19908424.037 9  19908426.076 9
 109100422.431 9  84855878.839 9  20395176.736 9  20395177.970 9
 18  9  7  0 16  0.0000000  0 19G01G03G07G08G11G17G18G19G22G28G30R02
                                R03R09R15R16R17R18R19
 106492851.482 9  82981410.849 9  20264939.823 9  20264947.604 9
 122715876.917 9  95622730.960 9  23352078.194 9  23352085.702 9
 121351247.836 9  94559394.231 9  23092389.667 9  23092394.503 9
 125221591.396 9  97575233.861 9  23828900.614 9  23828908.411 9
 109006893.108 9  84940420.354 9  20743333.998 9  20743337.836 9
 119013318.315 9  92737631.552 9  22647496.548 9  22647501.402 9
 112076642.156 9  87332428.172 9  21327491.853 9  21327496.995 9
 130559039.188 9 101734301.210 9  24844570.092 9  24844573.670 9
 119942640.260 9  93461786.695 9  22824333.628 9  22824336.262 9
 109737876.624 9  85510018.198 9  20882435.344 9  20882439.147 9
 114844797.961 9  89489423.032 9  21854261.252 9  21854268.643 9
 124582747.781 9  96897679.717 9  23346762.440 9  23346765.521 9
 128546166.752 9  99980335.141 9  24013516.547 9  24013520.670 9
 113055391.402 9  87931969.240 9  21171644.547 9  21171645.114 9
 125080218.988 9  97284591.622 9  23407074.832 9  23407080.436 9
 104194417.839 9  81040094.363 9  19505419.112 9  19505420.966 9
 123636783.624 9  96161930.156 9  23104497.109 9  23104500.020 9
 106322801.763 9  82695504.508 9  19917849.906 9  19917851.943 9
 109054720.780 9  84820333.132 9  20386633.278 9  20386634.508 9
 18  9  7  0 16 30.0000000  0 18G01G03G07G08G11G17G18G22G28G30R02R03
                                R09R15R16R17R18R19
 106520571.791 9  83003011.096 9  20270214.817 9  20270222.597 9
 122626026.917 9  95552717.985 9  23334980.298 9  23334987.804 9
 121454540.985 9  94639882.362 9  23112045.728 9  23112050.572 9
 125300286.575 9  97636554.759 9  23843875.824 9  23843883.626 9
 109060082.130 9  84981866.344 9  20753455.533 9  20753459.372 9
 118956553.775 9  92693399.451 9  22636694.609 9  22636699.461 9
 112153538.732 9  87392347.579 9  21342124.787 9  21342129.930 9
 119891164.408 9  93421675.674 9  22814538.075 9  22814540.701 9
 109694207.623 9  85475990.412 9  20874125.404 9  20874129.205 9
 114911600.844 9  89541477.206 9  21866973.433 9  21866980.829 9
 124543556.290 9  96867197.490 9  23339417.939 9  23339421.009 9
 128446384.696 9  99902726.956 9  23994876.362 9  23994880.465 9
 112964437.845 9  87861227.571 9  21154611.878 9  21154612.448 9
 125213962.579 9  97388614.396 9  23432103.135 9  23432108.744 9
 104239974.959 9  81075527.680 9  19513947.499 9  19513949.353 9
 123738350.124 9  96240926.275 9  23123477.273 9  23123480.194 9
 106373428.296 9  82734880.694 9  19927333.966 9  19927336.005 9
 109009437.949 9  84785113.164 9  20378168.122 9  20378169.349 9
 18  9  7  0 17  0.0000000  0 18G01G03G07G08G11G17G18G22G28G30R02R03
                                R09R15R16R17R18R19
 106548851.756 9  83025047.432 9  20275596.316 9  20275604.096 9
 122536366.509 9  95482852.763 9  23317918.467 9  23317925.964 9
 121557995.470 9  94720496.235 9  23131732.470 9  23131737.318 9
 125379025.752 9  97697909.928 9  23858859.417 9  23858867.228 9
 109113653.327 9  85023610.150 9  20763649.781 9  20763653.616 9
 118899926.929 9  92649274.657 9  22625918.863 9  22625923.709 9
 112230837.063 9  87452580.036 9  21356834.177 9  21356839.322 9
 119840089.853 9  93381877.344 9  22804818.891 9  22804821.512 9
 109650826.289 9  85442186.779 9  20865870.208 9  20865874.008 9
 114978834.175 9  89593866.798 9  21879767.523 9  21879774.923 9
 124504998.112 9  96837207.837 9  23332192.123 9  23332195.183 9
 128346753.864 9  99825236.330 9  23976264.470 9  23976268.568 9
 112874010.655 9  87790895.351 9  21137677.741 9  21137678.302 9
 125347832.417 9  97492735.300 9  23457155.110 9  23457160.738 9
 104286289.435 9  81111550.045 9  19522617.670 9  19522619.525 9
 123839882.832 9  96319896.071 9  23142451.151 9  23142454.094 9
 106424363.402 9  82774496.876 9  19936875.836 9  19936877.878 9
 108964573.789 9  84750218.817 9  20369781.241 9  20369782.468 9
 18  9  7  0 17 30.0000000  0 18G01G03G07G08G11G17G18G22G28G30R02R03
                                R09R15R16R17R18R19
 106577688.281 9  83047517.451 9  20281083.725 9  20281091.505 9
 122446897.442 9  95413136.624 9  23300893.056 9  23300900.550 9
 121661606.654 9  94801232.192 9  23151449.046 9  23151453.901 9
 125457807.271 9  97759298.098 9  23873851.062 9  23873858.879 9
 109167603.233 9  85065649.043 9  20773916.103 9  20773919.936 9
 118843436.500 9  92605256.161 9  22615169.076 9  22615173.918 9
 112308533.141 9  87513122.430 9  21371619.253 9  21371624.398 9
 119789417.074 9  93342392.092 9  22795176.159 9  22795178.772 9
 109607732.751 9  85408607.400 9  20857669.779 9  20857673.579 9
 115046493.978 9  89646588.705 9  21892642.769 9  21892650.173 9
 124467074.452 9  96807711.660 9  23325085.243 9  23325088.303 9
 128247277.162 9  99747865.626 9  23957681.339 9  23957685.422 9
 112784112.288 9  87720974.408 9  21120842.658 9  21120843.217 9
 125481824.082 9  97596950.972 9  23482229.873 9  23482235.517 9
 104333357.781 9  81148158.722 9  19531428.990 9  19531430.854 9
 123941378.890 9  96398837.440 9  23161418.122 9  23161421.067 9
 106475603.456 9  82814350.249 9  19946474.827 9  19946476.869 9
 108920126.289 9  84715648.560 9  20361472.235 9  20361473.456 9
 18  9  7  0 18  0.0000000  0 19G01G03G07G08G11G17G18G19G22G28G30R02
                                R03R09R15R16R17R18R19
 106607078.516 9  83070418.938 9  20286676.496 9  20286684.275 9
 122357621.842 9  95343571.254 9  23283904.450 9  23283911.936 9
 121765370.270 9  94882086.916 9  23171194.637 9  23171199.502 9
 125536629.655 9  97820718.086 9  23888850.502 9  23888858.331 9
 109221929.024 9  85107980.829 9  20784253.957 9  20784257.790 9
 118787080.732 9  92561342.591 9  22604444.919 9  22604449.757 9
 112386622.916 9  87573971.592 9  21386479.253 9  21386484.401 9
 130204043.738 1 101457664.442 1  24777029.491 1  24777037.205 1
 119739147.391 9  93303220.948 9  22785610.128 9  22785612.732 9
 109564927.785 9  85375252.884 9  20849524.263 9  20849528.062 9
 115114576.434 9  89699639.954 9  21905598.441 9  21905605.849 9
 124429786.578 9  96778709.994 9  23318097.502 9  23318100.558 9
 128147957.805 9  99670617.263 9  23939127.629 9  23939131.706 9
 112694745.636 9  87651467.010 9  21104107.157 9  21104107.716 9
 125615932.228 9  97701257.295 9  23507326.393 9  23507332.041 9
 104381177.489 9  81185351.809 9  19540380.954 9  19540382.823 9
 124042835.996 9  96477748.464 9  23180377.851 9  23180380.810 9
 106527144.844 9  82854438.000 9  19956130.262 9  19956132.303 9
 108876093.925 9  84681401.197 9  20353240.826 9  20353242.040 9
 18  9  7  0 18 30.0000000  0 19G01G03G07G08G11G17G18G19G22G28G30R02
                                R03R09R15R16R17R18R19
 106637022.954 9  83093752.270 9  20292374.731 9  20292382.509 9
 122268545.115 9  95274160.826 9  23266953.706 9  23266961.190 9
 121869285.252 9  94963059.616 9  23190969.011 9  23190973.879 9
 125615495.069 9  97882171.669 9  23903858.081 9  23903865.907 9
 109276631.056 9  85150605.791 9  20794663.406 9  20794667.238 9
 118730862.196 9  92517535.954 9  22593746.876 9  22593751.710 9
 112465105.869 9  87635127.132 9  21401414.068 9  21401419.219 9
 130115485.314 1 101388657.944 1  24760177.333 1  24760185.031 1
 119689285.451 9  93264367.518 9  22776121.694 9  22776124.291 9
 109522415.287 9  85342126.263 9  20841434.403 9  20841438.202 9
 115183081.112 9  89753020.213 9  21918634.455 9  21918641.866 9
 124393139.416 9  96750206.690 9  23311229.807 9  23311232.852 9
 128048802.584 9  99593496.546 9  23920604.593 9  23920608.668 9
 112605916.678 9  87582377.848 9  21087472.326 9  21087472.879 9
 125750156.769 9  97805654.033 9  23532444.780 9  23532450.458 9
 104429749.167 9  81223129.781 9  19549473.674 9  19549475.542 9
 124144254.925 9  96556629.797 9  23199330.443 9  23199333.416 9
 106578987.539 9  82894760.095 9  19965842.146 9  19965844.188 9
 108832478.486 9  84647478.059 9  20345087.394 9  20345088.612 9
 18  9  7  0 19  0.0000000  0 19G01G03G07G08G11G17G18G19G22G28G30R02
                                R03R09R15R16R17R18R19
 106667519.517 9  83117515.824 9  20298178.035 9  20298185.813 9
 122179670.052 9  95204907.556 9  23250041.324 9  23250048.802 9
 121973348.332 9  95044147.705 9  23210771.576 9  23210776.450 9
 125694402.493 9  97943657.965 9  23918873.670 9  23918881.499 9
 109331707.360 9  85193522.396 9  20805144.074 9  20805147.906 9
 118674780.477 9  92473835.931 9  22583074.866 9  22583079.696 9
 112543979.120 9  87696586.800 9  21416423.155 9  21416428.307 9
 130027004.290 1 101319711.661 1  24743339.977 1  24743347.683 1
 119639832.853 9  93225833.051 9  22766711.159 9  22766713.749 9
 109480197.051 9  85309228.936 9  20833400.540 9  20833404.339 9
 115252005.040 9  89806727.144 9  21931750.262 9  21931757.679 9
 124357134.745 9  96722203.073 9  23304482.535 9  23304485.577 9
 127949815.077 9  99516506.337 9  23902112.841 9  23902116.897 9
 112517629.012 9  87513709.682 9  21070938.869 9  21070939.417 9
 125884492.959 9  97910137.675 9  23557584.012 9  23557589.704 9
 104479070.930 9  81261491.136 9  19558706.823 9  19558708.696 9
 124245633.837 9  96635480.028 9  23218275.541 9  23218278.522 9
 106631128.939 9  82935314.516 9  19975609.989 9  19975612.030 9
 108789278.985 9  84613878.464 9  20337011.690 9  20337012.905 9
 18  9  7  0 19 30.0000000  0 19G01G03G07G08G11G17G18G19G22G28G30R02
                                R03R09R15R16R17R18R19
 106698566.629 9  83141708.382 9  20304086.101 9  20304093.879 9
 122091000.136 9  95135814.139 9  23233167.982 9  23233175.454 9
 122077556.760 9  95125349.052 9  23230601.799 9  23230606.680 9
 125773351.803 9  98005176.870 9  23933897.253 9  23933905.091 9
 109387156.255 9  85236729.333 9  20815695.644 9  20815699.474 9
 118618835.440 9  92430242.412 9  22572428.867 9  22572433.693 9
 112623240.042 9  87758348.553 9  21431506.010 9  21431511.164 9
 129938600.844 1 101250825.860 1  24726517.360 1  24726525.065 1
 119590792.469 9  93187619.800 9  22757379.057 9  22757381.639 9
 109438274.999 9  85276562.408 9  20825423.034 9  20825426.831 9
 115321345.742 9  89860758.854 9  21944945.363 9  21944952.782 9
 124321775.721 9  96694701.647 9  23297856.242 9  23297859.275 9
 127851000.659 9  99439650.701 9  23883653.461 9  23883657.512 9
 112429886.681 9  87445465.650 9  21054507.547 9  21054508.094 9
 126018938.727 9  98014706.472 9  23582743.802 9  23582749.527 9
 104529141.275 9  81300434.711 9  19568080.117 9  19568081.995 9
 124346971.828 9  96714298.387 9  23237213.024 9  23237216.024 9
 106683566.886 9  82976099.584 9  19985433.385 9  19985435.426 9
 108746495.218 9  84580602.238 9  20329013.689 9  20329014.894 9
 18  9  7  0 20  0.0000000  0 18G01G03G07G08G11G17G18G22G28G30R02R03
                                R09R15R16R17R18R19
 106730159.445 9  83166326.169 9  20310098.008 9  20310105.784 9
 122002535.411 9  95066880.615 9  23216333.683 9  23216341.148 9
 122181903.932 9  95206658.494 9  23250458.438 9  23250463.329 9
 125852340.045 9  98066726.124 9  23948928.235 9  23948936.079 9
 109442972.726 9  85280222.688 9  20826317.164 9  20826320.994 9
 118563023.840 9  92386752.872 9  22561808.259 9  22561813.081 9
 112702882.772 9  87820407.816 9  21446661.523 9  21446666.678 9
 119542163.250 9  93149726.929 9  22748125.204 9  22748127.780 9
 109396647.770 9  85244125.604 9  20817501.638 9  20817505.435 9
 115391097.553 9  89915110.889 9  21958218.711 9  21958226.135 9
 124287061.139 9  96667701.459 9  23291350.713 9  23291353.736 9
 127752360.134 9  99362930.306 9  23865226.572 9  23865230.620 9
 112342690.471 9  87377646.383 9  21038178.493 9  21038179.038 9
 126153486.406 1  98119354.619 1  23607922.601 1  23607928.338 1
 104579955.071 9  81339956.544 9  19577592.572 9  19577594.453 9
 124448264.494 9  96793081.486 9  23256142.043 9  23256145.064 9
 106736295.973 9  83017111.079 9  19995311.332 9  19995313.378 9
 108704123.660 9  84547646.572 9  20321092.780 9  20321093.988 9
 18  9  7  0 20 30.0000000  0 18G01G03G07G08G11G17G18G22G28G30R02R03
                                R09R15R16R17R18R19
 106762298.820 9  83191369.842 9  20316213.925 9  20316221.699 9
 121914281.811 9  94998111.619 9  23199539.549 9  23199547.004 9
 122286389.469 9  95288075.781 9  23270341.386 9  23270346.280 9
 125931369.336 9  98128307.387 9  23963967.011 9  23963974.856 9
 109499157.404 9  85324002.961 9  20837008.750 9  20837012.579 9
 118507348.247 9  92343369.305 9  22551213.537 9  22551218.356 9
 112782907.491 9  87882764.735 9  21461889.724 9  21461894.881 9
 119493950.296 9  93112158.421 9  22738950.564 9  22738953.132 9
 109355319.808 9  85211922.002 9  20809637.184 9  20809640.981 9
 115461260.331 9  89969783.170 9  21971570.254 9  21971577.682 9
 124252996.571 9  96641206.819 9  23284967.010 9  23284970.027 9
 127653900.681 9  99286350.783 9  23846833.481 9  23846837.517 9
 112256047.019 9  87310257.060 9  21021952.937 9  21021953.475 9
 126288136.154 9  98224082.083 9  23633120.553 9  23633126.317 9
 104631513.545 9  81380057.555 9  19587244.444 9  19587246.331 9
 124549513.113 9  96871830.359 9  23275062.807 9  23275065.840 9
 106789316.586 9  83058349.344 9  20005243.872 9  20005245.915 9
 108662166.163 9  84515013.010 9  20313249.235 9  20313250.431 9
 18  9  7  0 21  0.0000000  0 18G01G03G07G08G11G17G18G22G28G30R02R03
                                R09R15R16R17R18R19
 106794982.336 9  83216837.523 9  20322433.386 9  20322441.159 9
 121826241.833 9  94929509.066 9  23182786.078 9  23182793.526 9
 122391009.737 9  95369598.022 9  23290249.995 9  23290254.901 9
 126010439.152 9  98189920.227 9  23979013.500 9  23979021.345 9
 109555707.916 9  85368068.304 9  20847769.948 9  20847773.774 9
 118451807.822 9  92300091.062 9  22540644.538 9  22540649.354 9
 112863310.540 9  87945416.445 9  21477189.928 9  21477195.089 9
 119446155.045 9  93074915.394 9  22729855.410 9  22729857.972 9
 109314292.332 9  85179952.536 9  20801829.918 9  20801833.716 9
 115531830.780 9  90024773.107 9  21984999.381 9  21985006.815 9
 124219583.514 9  96615218.928 9  23278705.386 9  23278708.393 9
 127555626.137 9  99209915.101 9  23828474.916 9  23828478.934 9
 112169959.527 9  87243300.108 9  21005831.525 9  21005832.067 9
 126422883.238 1  98328885.287 1  23658336.694 1  23658342.479 1
 104683813.859 9  81420735.573 9  19597035.176 9  19597037.063 9
 124650715.707 9  96950543.407 9  23293974.990 9  23293978.042 9
 106842625.941 9  83099812.171 9  20015230.514 9  20015232.558 9
 108620621.425 9  84482700.427 9  20305482.891 9  20305484.090 9
 18  9  7  0 21 30.0000000  0 19G01G03G07G08G11G17G18G19G22G28G30R02
                                R03R09R15R16R17R18R19
 106828206.553 9  83242726.525 9  20328755.743 9  20328763.516 9
 121738417.098 9  94861074.233 9  23166073.567 9  23166081.009 9
 122495760.118 9  95451221.653 9  23310183.362 9  23310188.278 9
 126089547.320 9  98251562.927 9  23994067.305 9  23994075.157 9
 109612621.083 9  85412416.222 9  20858600.166 9  20858603.994 9
 118396401.248 9  92256917.128 9  22530101.002 9  22530105.814 9
 112944087.881 9  88008359.829 9  21492561.344 9  21492566.504 9
 129585745.30015 100975888.83415  24659359.518 5  24659363.449 5
 119398777.969 9  93037998.228 9  22720839.825 9  22720842.379 9
 109273565.591 9  85148217.420 9  20794079.872 9  20794083.668 9
 115602804.591 9  90080077.369 9  21998505.253 9  21998512.688 9
 124186822.698 9  96589738.349 9  23272565.983 9  23272568.976 9
 127457539.120 9  99133625.302 9  23810151.361 9  23810155.354 9
 112084430.000 9  87176777.158 9  20989814.581 9  20989815.119 9
 126557723.246 9  98433760.802 9  23683570.197 9  23683575.994 9
 104736852.953 9  81461988.195 9  19606964.210 9  19606966.099 9
 124751869.709 9  97029218.657 9  23312878.095 9  23312881.168 9
 106896220.070 9  83141496.499 9  20025270.496 9  20025272.539 9
 108579487.570 9  84450707.456 9  20297793.330 9  20297794.523 9
 18  9  7  0 22  0.0000000  0 19G01G03G07G08G11G17G18G19G22G28G30R02
                                R03R09R15R16R17R18R19
 106861973.318 9  83269038.297 9  20335181.340 9  20335189.111 9
 121650814.570 9  94792812.557 9  23149403.335 9  23149410.768 9
 122600641.060 9  95532947.013 9  23330141.579 9  23330146.507 9
 126168697.493 9  98313238.344 9  24009129.114 9  24009136.977 9
 109669898.311 9  85457047.831 9  20869499.658 9  20869503.486 9
 118341131.949 9  92213850.161 9  22519583.590 9  22519588.397 9
 113025240.295 9  88071595.471 9  21508004.139 9  21508009.301 9
 129497729.503 9 100907305.167 9  24642610.616 9  24642614.529 9
 119351825.272 9  93001411.732 9  22711905.008 9  22711907.556 9
 109233145.130 9  85116720.970 9  20786388.104 9  20786391.897 9
 115674182.736 9  90135696.695 9  22012088.069 9  22012095.505 9
 124154720.278 9  96564769.872 9  23266549.950 9  23266552.926 9
 127359648.013 9  99057487.882 9  23791864.401 9  23791868.368 9
 111999466.357 9  87110694.341 9  20973903.608 9  20973904.142 9
 126692655.542 9  98538708.097 9  23708820.971 9  23708826.778 9
 104790632.410 9  81503816.640 9  19617031.853 9  19617033.748 9
 124852977.443 9  97107857.955 9  23331772.529 9  23331775.614 9
 106950100.457 9  83183403.461 9  20035364.112 9  20035366.157 9
 108538768.080 9  84419036.769 9  20290181.231 9  20290182.417 9
 18  9  7  0 22 30.0000000  0 19G01G03G07G08G11G17G18G19G22G28G30R02
                                R03R09R15R16R17R18R19
 106896280.434 9  83295771.122 9  20341709.761 9  20341717.530 9
 121563437.010 9  94724726.171 9  23132775.920 9  23132783.347 9
 122705648.910 9  95614771.282 9  23350123.931 9  23350128.866 9
 126247888.713 9  98374945.807 9  24024198.688 9  24024206.546 9
 109727537.740 9  85501961.674 9  20880468.075 9  20880471.902 9
 118285999.839 9  92170890.095 9  22509092.283 9  22509097.085 9
 113106764.700 9  88135120.967 9  21523517.728 9  21523522.893 9
 129409794.184 9 100838784.126 9  24625877.091 9  24625881.007 9
 119305298.328 9  92965156.994 9  22703051.207 9  22703053.750 9
 109193032.468 9  85085464.347 9  20778754.921 9  20778758.714 9
 115745962.130 9  90191628.670 9  22025747.248 9  22025754.690 9
 124123277.992 9  96540314.834 9  23260657.625 9  23260660.583 9
 127261957.100 9  98981506.149 9  23773614.853 9  23773618.798 9
 111915071.733 9  87045054.083 9  20958099.202 9  20958099.736 9
