     2.10           OBSERVATION DATA    G (GPS)             RINEX VERSION / TYPE
RTKCONV 2.4.2                           20180908 151320 UTC PGM / RUN BY / DATE 
log: C:\Users\80575\Documents\Visual Studio 2015\Projects\  COMMENT             
format: RINEX                                               COMMENT             
BJFS                                                        MARKER NAME         
21601M001                                                   MARKER NUMBER       
                                                            OBSERVER / AGENCY   
5310K42306          TRIMBLE NETR9       4.85                REC # / TYPE / VERS 
5317361110          TRM59900.00     SCIS                    ANT # / TYPE        
 -2148744.5566  4426641.1140  4044655.7555                  APPROX POSITION XYZ 
        0.0465        0.0000        0.0000                  ANTENNA: DELTA H/E/N
     1     1                                                WAVELENGTH FACT L1/2
     3    C1    L1    P1                                    # / TYPES OF OBSERV 
    30.000                                                  INTERVAL   
  2018     9     7     0     0    0.0000000     GPS         TIME OF FIRST OBS   
  2018     9     7    23    59   30.0000000     GPS         TIME OF LAST OBS    
                                                            END OF HEADER       
 18  9  7  0  0  0.0000000  0 10G 7G 1G11G18G28G 3G17G22G30G 8
  22483061.273   118149272.382                  
  20153992.742   105909955.648                  
  20459770.055   107516811.330                  
  20902535.836   109843560.842                  
  21175068.984   111275723.787                  
  23914516.570   125671623.334                  
  23007044.328   120902847.276                  
  23175221.250   121786623.746                  
  21493447.805   112948834.183                  
  23354368.734   122728029.495                  
 18  9  7  0  0 30.0000000  0 10G 7G 1G11G18G28G 3G17G22G30G 8
  22501426.680   118245781.699                  
  20155718.352   105919024.641                  
  20467392.344   107556865.198                  
  20914461.594   109906231.371                  
  21165196.422   111223840.946                  
  23896589.953   125577421.546                  
  22995395.805   120841636.114                  
  23163235.453   121723640.285                  
  21503298.703   113000601.141                  
  23369048.281   122805172.966                  
 18  9  7  0  1  0.0000000  0 10G 7G 1G11G18G28G 3G17G22G30G 8
  22519841.359   118342552.512                  
  20157558.766   105928696.863                  
  20475097.453   107597357.242                  
  20926479.945   109969387.610                  
  21155366.969   111172188.292                  
  23878681.242   125483307.822                  
  22983774.555   120780567.128                  
  23151311.867   121660977.852                  
  21513246.297   113052874.406                  
  23383738.430   122882372.200                  
 18  9  7  0  1 30.0000000  0 10G 7G 1G11G18G28G 3G17G22G30G 8
  22538304.617   118439580.870                  
  20159513.984   105938970.632                  
  20482885.984   107638285.453                  
  20938589.883   110033026.372                  
  21145581.711   111120766.681                  
  23860789.313   125389284.512                  
  22972180.648   120719638.952                  
  23139448.219   121598638.153                  
  21523288.953   113105651.053                  
  23398439.664   122959625.775                  
 18  9  7  0  2  0.0000000  0 10G 7G 1G11G18G28G 3G17G22G30G 8
  22556816.984   118536863.798                  
  20161583.156   105949844.431                  
  20490756.742   107679647.401                  
  20950791.352   110097144.880                  
  21135841.078   111069577.635                  
  23842914.078   125295354.537                  
  22960613.266   120658851.781                  
  23127647.555   121536623.709                  
  21533427.508   113158928.815                  
  23413150.445   123036933.174                  
 18  9  7  0  2 30.0000000  0 10G 7G 1G11G18G28G 3G17G22G30G 8
  22575377.484   118634396.643                  
  20163766.234   105961315.995                  
  20498709.742   107721440.292                  
  20963083.305   110161739.338                  
  21126144.227   111018621.451                  
  23825058.609   125201519.704                  
  22949072.242   120598204.057                  
  23115909.008   121474936.028                  
  21543660.484   113212704.140                  
  23427872.219   123114292.388                  
 18  9  7  0  3  0.0000000  0 10G 7G 1G11G18G28G 3G17G22G30G 8
  22593984.250   118732177.468                  
  20166062.891   105973385.499                  
  20506744.695   107763663.481                  
  20975465.672   110226808.344                  
  21116492.516   110967901.210                  
  23807220.836   125107784.391                  
  22937558.023   120537696.772                  
  23104232.609   121413578.563                  
  21553988.633   113266976.165                  
  23442602.320   123191704.577                  
 18  9  7  0  3 30.0000000  0 10G 7G 1G11G18G28G 3G17G22G30G 8
  22612638.172   118830204.338                  
  20168473.586   105986053.060                  
  20514861.313   107806316.935                  
  20987937.625   110292350.702                  
  21106886.531   110917420.174                  
  23789403.203   125014153.020                  
  22926070.477   120477331.103                  
  23092620.594   121352555.323                  
  21564410.320   113321743.991                  
  23457344.141   123269170.506                  
 18  9  7  0  4  0.0000000  0 10G 7G 1G11G18G28G 3G17G22G30G 8
  22631338.844   118928473.935                  
  20170997.406   105999317.098                  
  20523059.352   107849398.325                  
  21000499.688   110358363.337                  
  21097325.883   110867179.765                  
  23771606.359   124920628.308                  
  22914610.492   120417106.773                  
  23081072.203   121291868.723                  
  21574926.180   113377004.893                  
  23472095.531   123346689.145                  
 18  9  7  0  4 30.0000000  0 10G 7G 1G11G18G28G 3G17G22G30G 8
  22650084.086   119026981.968                  
  20173634.867   106013175.288                  
  20531338.508   107892904.783                  
  21013150.352   110424842.563                  
  21087811.195   110817180.277                  
  23753830.219   124827212.240                  
  22903176.789   120357022.369                  
  23069588.227   121231520.086                  
  21585535.234   113432755.521                  
  23486856.234   123424258.954                  
 18  9  7  0  5  0.0000000  0 10G 7G 1G11G18G28G 3G17G22G30G 8
  22668873.992   119125724.905                  
  20176384.445   106027626.128                  
  20539697.648   107936834.129                  
  21025889.336   110491785.498                  
  21078342.742   110767423.173                  
  23736074.914   124733907.615                  
  22891769.195   120297076.968                  
  23058168.625   121171511.654                  
  21596236.844   113488993.355                  
  23501627.523   123501879.217                  
 18  9  7  0  5 30.0000000  0 10G 7G 1G11G18G28G 3G17G22G30G 8
  22687708.141   119224699.650                  
  20179246.930   106042668.468                  
  20548137.945   107981185.178                  
  21038715.320   110559189.662                  
  21068921.008   110717910.501                  
  23718340.836   124640717.628                  
  22880389.609   120237270.880                  
  23046815.352   121111846.125                  
  21607031.047   113545716.142                  
  23516407.195   123579549.656                  
 18  9  7  0  6  0.0000000  0 10G 7G 1G11G18G28G 3G17G22G30G 8
  22706586.375   119323903.854                  
  20182221.867   106058301.897                  
  20556657.398   108025956.592                  
  21051629.445   110627053.067                  
  21059545.875   110668644.841                  
  23700630.430   124547646.348                  
  22869034.336   120177604.798                  
  23035526.438   121052526.728                  
  21617916.773   113602922.483                  
  23531196.883   123657270.414                  
 18  9  7  0  6 30.0000000  0 11G 7G 1G11G18G28G19G 3G17G22G30G 8
  22725507.320   119423335.221                  
  20185309.234   106074525.857                  
  20565256.961   108071147.353                  
  21064630.445   110695373.951                  
  21050218.422   110619628.470                  
  25168511.188   132261391.0571                 
  23682942.594   124454697.555                  
  22857707.156   120118079.058                  
  23024305.352   120993556.723                  
  21628894.297   113660610.748                  
  23545996.781   123735042.051                  
 18  9  7  0  7  0.0000000  0 11G 7G 1G11G18G28G19G 3G17G22G30G 8
  22744470.906   119522989.168                  
  20188508.633   106091337.969                  
  20573935.570   108116754.396                  
  21077717.727   110764148.779                  
  21040938.102   110570862.202                  
  25151339.641   132171153.9161                 
  23665278.875   124361873.339                  
  22846406.672   120058692.449                  
  23013150.516   120934937.878                  
  21639963.352   113718777.522                  
  23560805.594   123812862.965                  
 18  9  7  0  7 30.0000000  0 11G 7G 1G11G18G28G19G 3G17G22G30G 8
  22763476.172   119622862.856                  
  20191819.328   106108737.009                  
  20582693.633   108162776.691                  
  21090891.242   110833374.778                  
  21031706.734   110522347.893                  
  25134180.820   132080985.9861                 
  23647639.125   124269176.932                  
  22835131.859   119999445.035                  
  23002062.836   120876672.429                  
  21651122.570   113777420.591                  
  23575623.891   123890733.154                  
 18  9  7  0  8  0.0000000  0 11G 7G 1G11G18G28G19G 3G17G22G30G 8
  22782523.664   119722954.392                  
  20195242.016   106126722.894                  
  20591529.898   108209213.542                  
  21104149.945   110903050.667                  
  21022523.102   110474088.455                  
  25117037.102   131990888.6961                 
  23630025.234   124176612.745                  
  22823884.141   119940338.140                  
  22991042.781   120818764.436                  
  21662372.859   113836538.842                  
  23590452.039   123968653.445                  
 18  9  7  0  8 30.0000000  0 11G 7G 1G11G18G28G19G 3G17G22G30G 8
  22801611.375   119823262.140                  
  20198776.258   106145295.806                  
  20600445.414   108256064.375                  
  21117494.234   110973175.455                  
  21013388.469   110426087.474                  
  25099904.219   131900864.2511                 
  23612436.805   124084185.480                  
  22812663.297   119881372.527                  
  22980092.617   120761217.934                  
  21673712.766   113896131.410                  
  23605288.820   124046624.492                  
 18  9  7  0  9  0.0000000  0 11G 7G 1G11G18G28G19G 3G17G22G30G 8
  22820738.734   119923776.499                  
  20202420.727   106164448.005                  
  20609438.078   108303321.475                  
  21130922.383   111043739.852                  
  21004303.016   110378340.203                  
  25082786.867   131810906.4071                 
  23594872.797   123991891.934                  
  22801468.281   119822542.108                  
  22969209.500   120704028.954                  
  21685141.258   113956189.560                  
  23620134.438   124124640.056                  
 18  9  7  0  9 30.0000000  0 11G 7G 1G11G18G28G19G 3G17G22G30G 8
  22839905.484   120024499.997                  
  20206176.344   106184183.730                  
  20618508.617   108350988.407                  
  21144434.344   111114746.969                  
  20995266.398   110330854.059                  
  25065681.719   131721021.3381                 
  23577338.234   123899740.860                  
  22790299.789   119763852.049                  
  22958396.484   120647205.793                  
  21696659.383   114016716.541                  
  23634989.820   124202704.838                  
 18  9  7  0 10  0.0000000  0 11G 7G 1G11G18G28G19G 3G17G22G30G 8
  22859110.930   120125423.716                  
  20210041.625   106204495.831                  
  20627656.133   108399057.589                  
  21158029.539   111186188.424                  
  20986278.922   110283625.229                  
  25048589.508   131631203.4391                 
  23559828.281   123807729.725                  
  22779157.313   119705296.894                  
  22947653.141   120590744.771                  
  21708264.750   114077704.193                  
  23649853.313   124280813.154                  
 18  9  7  0 10 30.0000000  0 11G 7G 1G11G18G28G19G 3G17G22G30G 8
  22878354.492   120226551.895                  
  20214017.594   106225389.972                  
  20636881.023   108447534.135                  
  21171707.953   111258068.636                  
  20977342.516   110236662.419                  
  25031512.852   131541460.3081                 
  23542347.906   123715868.768                  
  22768041.281   119646883.366                  
  22936979.078   120534655.885                  
  21719959.148   114139157.230                  
  23664727.102   124358971.935                  
 18  9  7  0 11  0.0000000  0 11G 7G 1G11G18G28G19G 3G17G22G30G 8
  22897636.008   120327876.512                  
  20218103.617   106246860.605                  
  20646181.930   108496412.789                  
  21185468.289   111330380.843                  
  20968455.859   110189963.300                  
  25014448.563   131451787.8641                 
  23524895.359   123624157.095                  
  22756952.367   119588607.332                  
  22926376.180   120478937.276                  
  21731740.188   114201068.995                  
  23679608.297   124437176.371                  
 18  9  7  0 11 30.0000000  0 11G 7G 1G11G18G28G19G 3G17G22G30G 8
  22916954.930   120429395.672                  
  20222298.547   106268906.710                  
  20655559.766   108545691.980                  
  21199310.578   111403123.048                  
  20959619.836   110143530.311                  
  24997396.984   131362187.1851                 
  23507472.617   123532598.330                  
  22745888.078   119530468.920                  
  22915844.352   120423591.978                  
  21743608.938   114263437.586                  
  23694498.992   124515426.732                  
 18  9  7  0 12  0.0000000  0 11G 7G 1G11G18G28G19G 3G17G22G30G 8
  22936310.070   120531106.515                  
  20226603.172   106291527.273                  
  20665013.398   108595370.182                  
  21213234.500   111476292.523                  
  20950835.250   110097365.470                  
  24980361.289   131272658.5211                 
  23490079.609   123441196.082                  
  22734851.500   119472468.356                  
  22905384.039   120368622.735                  
  21755563.250   114326260.941                  
  23709398.430   124593723.158                  
 18  9  7  0 12 30.0000000  0 11G 7G 1G11G18G28G19G 3G17G22G30G 8
  22955700.633   120633005.902                  
  20231016.945   106314720.799                  
  20674542.422   108645445.716                  
  21227239.125   111549887.174                  
  20942101.461   110051470.863                  
  24963337.820   131183202.6931                 
  23472715.844   123349953.599                  
  22723840.836   119414605.760                  
  22894995.820   120314032.190                  
  21767604.516   114389536.649                  
  23724306.727   124672065.224                  
 18  9  7  0 13  0.0000000  0 11G 7G 1G11G18G28G19G 3G17G22G30G 8
  22975126.398   120735090.077                  
  20235539.047   106338485.304                  
  20684146.391   108695916.475                  
  21241323.938   111623903.458                  
  20933419.883   110005847.705                  
  24946329.336   131093819.5551                 
  23455384.336   123258873.580                  
  22712855.633   119356880.381                  
  22884680.031   120259822.244                  
  21779730.805   114453261.733                  
  23739222.516   124750452.050                  
 18  9  7  0 13 30.0000000  0 11G 7G 1G11G18G28G19G 3G17G22G30G 8
  22994587.742   120837358.419                  
  20240169.969   106362821.690                  
  20693825.977   108746783.044                  
  21255488.734   111698341.268                  
  20924790.781   109960500.507                  
  24929334.234   131004511.7241                 
  23438084.164   123167961.739                  
  22701897.633   119299294.775                  
  22874437.742   120205997.811                  
  21791942.922   114517436.152                  
  23754149.867   124828886.202                  
 18  9  7  0 14  0.0000000  0 11G 7G 1G11G18G28G19G 3G17G22G30G 8
  23014082.656   120939805.871                  
  20244909.289   106387726.509                  
  20703580.367   108798041.848                  
  21269733.430   111773196.039                  
  20916213.492   109915428.832                  
  24912352.867   130915277.7101                 
  23420817.086   123077219.294                  
  22690965.281   119241846.857                  
  22864268.211   120152559.223                  
  21804239.719   114582055.452                  
  23769082.188   124907365.089                  
 18  9  7  0 14 30.0000000  0 11G 7G 1G11G18G28G19G 3G17G22G30G 8
  23033609.891   121042424.668                  
  20249755.383   106413193.537                  
  20713407.664   108849685.855                  
  21284055.539   111848460.452                  
  20907688.875   109870629.758                  
  24895385.906   130826113.179                  
  23403581.398   122986644.835                  
  22680058.859   119184531.448                  
  22854172.906   120099504.392                  
  21816619.383   114647112.466                  
  23784024.203   124985883.558                  
 18  9  7  0 15  0.0000000  0 11G 7G 1G11G18G28G19G 3G17G22G30G 8
  23053170.758   121145219.116                  
  20254709.688   106439229.017                  
  20723309.742   108901721.581                  
  21298457.094   111924139.688                  
  20899217.305   109826113.166                  
  24878432.383   130737026.199                  
  23386379.586   122896249.359                  
  22669178.539   119127356.860                  
  22844151.633   120046843.342                  
  21829084.109   114712612.504                  
  23798975.289   125064449.441                  
 18  9  7  0 15 30.0000000  0 11G 7G 1G11G18G28G19G 3G17G22G30G 8
  23072764.297   121248182.607                  
  20259771.281   106465827.134                  
  20733285.406   108954142.769                  
  21312935.828   112000226.514                  
  20890799.344   109781876.832                  
  24861494.375   130648013.082                  
  23369211.266   122806031.915                  
  22658324.414   119070318.446                  
  22834205.375   119994574.383                  
  21841631.391   114778548.788                  
  23813934.461   125143058.034                  
 18  9  7  0 16  0.0000000  0 11G 7G 1G11G18G28G19G 3G17G22G30G 8
  23092389.586   121351311.836                  
  20264939.664   106492986.482                  
  20743333.711   109006948.108                  
  21327491.609   112076719.156                  
  20882435.594   109737922.624                  
  24844569.883   130559074.1881                 
  23352078.055   122715995.917                  
  22647496.219   119013416.315                  
  22824333.742   119942700.260                  
  21854260.930   114844918.961                  
  23828900.898   125221709.396                  
 18  9  7  0 16 30.0000000  0 11G 7G 1G11G18G28G19G 3G17G22G30G 8
  23112045.664   121454604.985                  
  20270214.563   106520706.791                  
  20753454.977   109060137.130                  
  21342125.063   112153615.732                  
  20874125.656   109694253.623                  
  24827661.766   130470211.2611                 
  23334980.281   122626145.917                  
  22636694.789   118956651.775                  
  22814537.781   119891224.408                  
  21866973.109   114911721.844                  
  23843876.188   125300404.575                  
 18  9  7  0 17  0.0000000  0 11G 7G 1G11G18G28G19G 3G17G22G30G 8
  23131732.180   121558059.470                  
  20275596.055   106548986.756                  
  20763649.352   109113708.327                  
  21356834.063   112230914.063                  
  20865870.445   109650872.289                  
  24810764.789   130381425.0411                 
  23317918.266   122536485.509                  
  22625918.594   118900024.929                  
  22804818.898   119840149.853                  
  21879767.547   114978955.175                  
  23858859.359   125379143.752                  
 18  9  7  0 17 30.0000000  0 11G 7G 1G11G18G28G19G 3G17G22G30G 8
  23151449.070   121661670.654                  
  20281083.602   106577823.281                  
  20773915.992   109167658.233                  
  21371619.336   112308610.141                  
  20857669.758   109607778.751                  
  24793882.156   130292714.4101                 
  23300892.945   122447016.442                  
  22615169.156   118843534.500                  
  22795176.492   119789477.074                  
  21892642.359   115046614.978                  
  23873851.117   125457925.271                  
 18  9  7  0 18  0.0000000  0 11G 7G 1G11G18G28G19G 3G17G22G30G 8
  23171194.188   121765434.270                  
  20286676.523   106607213.516                  
  20784253.742   109221984.024                  
  21386479.078   112386699.916                  
  20849524.313   109564973.785                  
  24777016.305   130204078.7381                 
  23283904.578   122357740.842                  
  22604445.000   118787178.732                  
  22785610.156   119739207.391                  
  21905598.367   115114697.434                  
  23888850.258   125536747.655                  
 18  9  7  0 18 30.0000000  0 11G 7G 1G11G18G28G19G 3G17G22G30G 8
  23190968.016   121869349.252                  
  20292374.461   106637157.954                  
  20794663.125   109276686.056                  
  21401413.859   112465182.869                  
  20841434.375   109522461.287                  
  24760165.289   130115520.3141                 
  23266953.188   122268664.115                  
  22593746.547   118730960.196                  
  22776121.820   119689345.451                  
  21918634.461   115183202.112                  
  23903858.445   125615613.069                  
 18  9  7  0 19  0.0000000  0 11G 7G 1G11G18G28G19G 3G17G22G30G 8
  23210771.641   121973412.332                  
  20298177.727   106667654.517                  
  20805143.914   109331762.360                  
  21416422.797   112544056.120                  
  20833400.359   109480243.051                  
  24743327.172   130027039.2901                 
  23250041.258   122179789.052                  
  22583074.727   118674878.477                  
  22766711.328   119639892.853                  
  21931750.258   115252126.040                  
  23918873.297   125694520.493                  
 18  9  7  0 19 30.0000000  0 11G 7G 1G11G18G28G19G 3G17G22G30G 8
  23230601.922   122077620.760                  
  20304085.867   106698701.629                  
  20815695.398   109387211.255                  
  21431505.984   112623317.042                  
  20825423.055   109438320.999                  
  24726505.070   129938635.8441                 
  23233167.828   122091119.136                  
  22572429.563   118618933.440                  
  22757379.133   119590852.469                  
  21944945.359   115321466.742                  
  23933897.141   125773469.803                  
 18  9  7  0 20  0.0000000  0 10G 7G 1G11G18G28G 3G17G22G30G 8
  23250459.023   122181967.932                  
  20310097.828   106730294.445                  
  20826316.836   109443027.726                  
  21446661.352   112702959.772                  
  20817501.320   109396693.770                  
  23216333.078   122002654.411                  
  22561808.547   118563121.840                  
  22748125.227   119542223.250                  
  21958218.672   115391218.553                  
  23948928.102   125852458.045                  
 18  9  7  0 20 30.0000000  0 10G 7G 1G11G18G28G 3G17G22G30G 8
  23270341.141   122286453.469                  
  20316213.813   106762433.820                  
  20837008.531   109499212.404                  
  21461889.414   112782984.491                  
  20809637.070   109355365.808                  
  23199539.047   121914400.811                  
  22551213.516   118507446.247                  
  22738950.758   119494010.296                  
  21971570.047   115461381.331                  
  23963966.844   125931487.336                  
 18  9  7  0 21  0.0000000  0 11G 7G 1G11G18G28G19G 3G17G22G30G 8
  23290249.781   122391073.737                  
  20322433.289   106795117.336                  
  20847770.000   109555762.916                  
  21477189.422   112863387.540                  
  20801829.898   109314338.332                  
  24676124.570   129673886.0051                 
  23182785.602   121826360.833                  
  22540644.563   118451905.822                  
  22729855.539   119446215.045                  
  21984999.180   115531951.780                  
  23979013.828   126010557.152                  
 18  9  7  0 21 30.0000000  0 11G 7G 1G11G18G28G19G 3G17G22G30G 8
  23310182.914   122495824.118                  
  20328755.758   106828341.553                  
  20858600.289   109612676.083                  
  21492561.414   112944164.881                  
  20794080.047   109273611.591                  
  24659360.391   129585789.3001                 
  23166073.742   121738536.098                  
  22530100.953   118396499.248                  
  22720839.945   119398837.969                  
  21998505.219   115602925.591                  
  23994067.484   126089665.320                  
 18  9  7  0 22  0.0000000  0 11G 7G 1G11G18G28G19G 3G17G22G30G 8
  23330141.547   122600705.060                  
  20335181.250   106862108.318                  
  20869499.555   109669953.311                  
  21508004.016   113025317.295                  
  20786387.898   109233191.130                  
  24642611.000   129497773.5031                 
  23149403.336   121650933.570                  
  22519583.820   118341229.949                  
  22711905.055   119351885.272                  
  22012087.844   115674303.736                  
  24009129.156   126168815.493                  
 18  9  7  0 22 30.0000000  0 11G 7G 1G11G18G28G19G 3G17G22G30G 8
  23350123.844   122705712.910                  
  20341709.711   106896415.434                  
  20880467.734   109727592.740                  
  21523517.438   113106841.700                  
  20778754.602   109193078.468                  
  24625877.719   129409838.1841                 
  23132775.922   121563556.010                  
  22509092.391   118286097.839                  
  22703051.289   119305358.328                  
  22025747.039   115746083.130                  
  24024198.805   126248006.713                  
 18  9  7  0 23  0.0000000  0 11G 7G 1G11G18G28G19G 3G17G22G30G 8
  23370129.023   122810841.246                  
  20348340.039   106931257.431                  
  20891504.102   109785588.944                  
  21539100.914   113188731.866                  
  20771179.828   109153271.379                  
  24609158.758   129321979.992                  
  23116191.656   121476403.040                  
  22498625.828   118231098.569                  
  22694278.352   119259255.926                  
  22039481.641   115818257.461                  
  24039275.203   126327235.674                  
 18  9  7  0 23 30.0000000  0 11G 7G 1G11G18G28G19G 3G17G22G30G 8
  23390156.711   122916088.292                  
  20355071.758   106966633.877                  
  20902608.469   109843941.341                  
  21554753.484   113270986.541                  
  20763663.031   109113773.340                  
  24592454.383   129234200.410                  
  23099650.578   121389479.311                  
  22488185.695   118176233.339                  
  22685586.813   119213581.783                  
  22053290.805   115890825.380                  
  24054359.852   126406503.020                  
 18  9  7  0 24  0.0000000  0 11G 7G 1G11G18G28G19G 3G17G22G30G 8
  23410206.945   123021452.318                  
  20361905.266   107002544.117                  
  20913780.438   109902649.405                  
  21570475.047   113353604.153                  
  20756206.766   109074587.730                  
  24575766.664   129146501.585                  
  23083153.336   121302789.278                  
  22477770.742   118121503.614                  
  22676977.375   119168339.277                  
  22067174.273   115963785.430                  
  24069451.469   126485810.264                  
 18  9  7  0 24 30.0000000  0 11G 7G 1G11G18G28G19G 3G17G22G30G 8
  23430278.859   123126929.514                  
  20368839.828   107038985.720                  
  20925019.133   109961710.532                  
  21586265.242   113436581.496                  
  20748809.750   109035715.675                  
  24559093.391   129058882.968                  
  23066701.844   121216335.649                  
  22467381.992   118066908.943                  
  22668450.117   119123530.053                  
  22081132.328   116037134.297                  
  24084550.727   126565156.461                  
 18  9  7  0 25  0.0000000  0 11G 7G 1G11G18G28G19G 3G17G22G30G 8
  23450371.656   123232516.390                  
  20375874.992   107075956.487                  
  20936324.953   110021122.909                  
  21602122.922   113519915.537                  
  20741472.352   108997158.668                  
  24542434.383   128971344.550                  
  23050295.016   121130121.267                  
  22457018.578   118012448.824                  
  22660006.875   119079155.723                  
  22095163.719   116110868.951                  
  24099657.289   126644541.128                  
 18  9  7  0 25 30.0000000  0 11G 7G 1G11G18G28G19G 3G17G22G30G 8
  23470484.367   123338210.485                  
  20383010.836   107113454.704                  
  20947697.070   110080884.825                  
  21618048.250   113603603.684                  
  20734196.125   108958918.500                  
  24525792.148   128883887.036                  
  23033936.094   121044149.479                  
  22446680.586   117958123.084                  
  22651645.563   119035218.802                  
  22109268.266   116184986.640                  
  24114770.375   126723964.404                  
 18  9  7  0 26  0.0000000  0 11G 7G 1G11G18G28G19G 3G17G22G30G 8
  23490617.430   123444008.461                  
  20390246.227   107151478.231                  
  20959135.219   110140994.371                  
  21634040.719   113687643.189                  
  20726979.570   108920997.403                  
  24509164.383   128796510.7241                 
  23017622.484   120958423.541                  
  22436368.977   117903932.032                  
  22643367.688   118991721.014                  
  22123444.305   116259484.696                  
  24129891.656   126803425.493                  
 18  9  7  0 26 30.0000000  0 11G 7G 1G11G18G28G19G 3G17G22G30G 8
  23510769.219   123549907.225                  
  20397581.320   107190025.195                  
  20970640.148   110201449.865                  
  21650099.250   113772031.348                  
  20719824.320   108883396.879                  
  24492552.078   128709215.594                  
  23001357.172   120872946.685                  
  22426082.094   117849875.755                  
  22635174.500   118948664.713                  
  22137692.516   116334360.277                  
  24145019.977   126882924.936                  
 18  9  7  0 27  0.0000000  0 11G 7G 1G11G18G28G19G 3G17G22G30G 8
  23530939.195   123655902.460                  
  20405015.875   107229092.429                  
  20982209.500   110262247.903                  
  21666223.250   113856764.423                  
  20712730.383   108846117.859                  
  24475956.375   128622001.165                  
  22985139.125   120787720.867                  
  22415820.398   117795952.375                  
  22627065.133   118906050.750                  
  22152012.352   116409609.380                  
  24160155.070   126962461.081                  
 18  9  7  0 27 30.0000000  0 11G 7G 1G11G18G28G19G 3G17G22G30G 8
  23551127.227   123761992.327                  
  20412548.883   107268679.290                  
  20993844.031   110323388.252                  
  21682413.078   113941840.899                  
  20705698.320   108809163.158                  
  24459376.555   128534868.921                  
  22968969.984   120702750.552                  
  22405584.523   117742163.375                  
  22619041.281   118863882.204                  
  22166402.352   116485230.502                  
  24175297.273   127042034.962                  
 18  9  7  0 28  0.0000000  0 11G 7G 1G11G18G28G19G 3G17G22G30G 8
  23571333.109   123868173.405                  
  20420180.734   107308783.023                  
  21005543.516   110384868.358                  
  21698667.070   114027257.337                  
  20698727.867   108772533.879                  
  24442810.727   128447818.464                  
  22952849.500   120618038.336                  
  22395374.625   117688508.213                  
  22611100.953   118822160.636                  
  22180862.711   116561220.142                  
  24190447.102   127121645.855                  
 18  9  7  0 28 30.0000000  0 11G 7G 1G11G18G28G19G 3G17G22G30G 8
  23591556.188   123974445.001                  
  20427910.438   107349404.154                  
  21017307.242   110446688.718                  
  21714986.219   114113013.667                  
  20691820.305   108736234.558                  
  24426262.375   128360852.626                  
  22936779.641   120533589.823                  
  22385189.953   117634988.796                  
  22603248.234   118780890.597                  
  22195393.094   116637577.967                  
  24205604.070   127201296.085                  
 18  9  7  0 29  0.0000000  0 11G 7G 1G11G18G28G19G 3G17G22G30G 8
  23611795.070   124080800.219                  
  20435737.586   107390536.928                  
  21029135.031   110508843.956                  
  21731368.750   114199103.339                  
  20684975.203   108700263.149                  
  24409727.109   128273968.274                  
  22920759.742   120449404.558                  
  22375031.258   117581601.852                  
  22595480.680   118740070.405                  
  22209991.945   116714297.373                  
  24220767.586   127280981.697                  
 18  9  7  0 29 30.0000000  0 11G 7G 1G11G18G28G19G 3G17G22G30G 8
  23632049.484   124187238.002                  
  20443662.180   107432180.967                  
  21041026.781   110571333.835                  
  21747814.031   114285525.410                  
  20678193.500   108664623.164                  
  24393210.398   128187166.962                  
  22904790.742   120365487.390                  
  22364897.461   117528348.837                  
  22587798.875   118699703.551                  
  22224660.219   116791377.245                  
  24235938.563   127360703.854                  
 18  9  7  0 30  0.0000000  0 11G 7G 1G11G18G28G19G 3G17G22G30G 8
  23652318.813   124293754.398                  
  20451683.641   107474333.379                  
  21052981.117   110634155.606                  
  21764322.234   114372276.066                  
  20671474.055   108629315.347                  
  24376708.594   128100448.551                  
  22888873.094   120281840.601                  
  22354789.102   117475229.000                  
  22580203.570   118659791.222                  
  22239395.641   116868813.849                  
  24251115.633   127440462.001                  
 18  9  7  0 30 30.0000000  0 11G 7G 1G11G18G28G19G 3G17G22G30G 8
  23672601.844   124400344.539                  
  20459801.125   107516990.876                  
  21064998.430   110697306.255                  
  21780891.961   114459351.508                  
  20664818.922   108594340.565                  
  24360221.188   128013812.016                  
  22873007.742   120198466.181                  
  22344706.078   117422241.047                  
  22572695.242   118620334.099                  
  22254198.320   116946603.112                  
  24266299.805   127520254.901                  
 18  9  7  0 31  0.0000000  0 12G 7G 1G11G18G28G19G 3G17G22G30G 6G 8
  23692899.703   124507007.939                  
  20468014.672   107560153.247                  
  21077078.188   110760785.625                  
  21797523.328   114546751.166                  
  20658227.281   108559702.508                  
  24343750.727   127927259.664                  
  22857194.977   120115369.226                  
  22334648.305   117369386.700                  
  22565274.109   118581335.979                  
  22269068.242   117024744.001                  
  25035545.281   131562670.9801                 
  24281490.945   127600083.697                  
 18  9  7  0 31 30.0000000  0 12G 7G 1G11G18G28G19G 3G17G22G30G 6G 8
  23713209.914   124613742.102                  
  20476323.922   107603819.099                  
  21089220.344   110824592.694                  
  21814216.188   114634472.755                  
  20651700.609   108525403.519                  
  24327297.961   127840792.557                  
  22841435.500   120032553.548                  
  22324615.641   117316666.629                  
  22557941.133   118542799.585                  
  22284004.594   117103234.379                  
  25014968.266   131454536.7421                 
  24296688.852   127679949.174                  
 18  9  7  0 32  0.0000000  0 12G 7G 1G11G18G28G19G 3G17G22G30G 6G 8
  23733533.773   124720542.784                  
  20484728.383   107647984.881                  
  21101424.203   110888724.292                  
  21830969.703   114722512.229                  
  20645238.555   108491443.939                  
  24310859.625   127754409.430                  
  22825729.625   119950020.893                  
  22314608.547   117264079.315                  
  22550695.578   118504725.221                  
  22299006.492   117182069.834                  
  24994407.570   131346493.434                  
  24311893.570   127759849.989                  
 18  9  7  0 32 30.0000000  0 12G 7G 1G11G18G28G19G 3G17G22G30G 6G 8
  23753868.727   124827403.616                  
  20493227.148   107692645.808                  
  21113688.742   110953175.895                  
  21847782.836   114810864.360                  
  20638840.258   108457823.042                  
  24294435.695   127668107.727                  
  22810078.695   119867771.762                  
  22304626.258   117211622.086                  
  22543537.938   118467112.215                  
  22314072.789   117261244.873                  
  24973865.055   131238540.160                  
  24327103.953   127839783.180                  
 18  9  7  0 33  0.0000000  0 12G 7G 1G11G18G28G19G 3G17G22G30G 6G 8
  23774215.938   124934328.322                  
  20501820.930   107737806.030                  
  21126015.289   111017951.957                  
  21864655.484   114899532.487                  
  20632508.641   108424548.667                  
  24278030.984   127581894.429                  
  22794482.734   119785815.604                  
  22294670.070   117159301.222                  
  22536469.648   118429968.607                  
  22329205.164   117340762.833                  
  24953340.805   131130684.800                  
  24342322.531   127919754.895                  
 18  9  7  0 33 30.0000000  0 12G 7G 1G11G18G28G19G 3G17G22G30G 6G 8
  23794573.656   125041310.655                  
  20510508.641   107783460.360                  
  21138402.641   111083047.420                  
  21881587.492   114988510.827                  
  20626242.367   108391619.681                  
  24261641.344   127495766.711                  
  22778942.555   119704152.479                  
  22284738.805   117107113.421                  
  22529490.875   118393293.283                  
  22344400.859   117420617.755                  
  24932835.594   131022926.070                  
  24357547.281   127999761.902                  
 18  9  7  0 34  0.0000000  0 12G 7G 1G11G18G28G19G 3G17G22G30G 6G 8
  23814943.086   125148349.275                  
  20519290.125   107829608.033                  
  21150850.352   111148461.880                  
  21898578.711   115077798.226                  
  20620042.617   108359039.175                  
  24245267.828   127409726.367                  
  22763459.734   119622786.981                  
  22274832.938   117055059.879                  
  22522601.227   118357089.472                  
  22359660.734   117500808.131                  
  24912347.680   130915267.251                  
  24372779.133   128079805.273                  
 18  9  7  0 34 30.0000000  0 12G 7G 1G11G18G28G19G 3G17G22G30G 6G 8
  23835321.172   125255437.816                  
  20528164.555   107876243.751                  
  21163358.070   111214190.332                  
  21915626.922   115167388.945                  
  20613908.813   108326805.899                  
  24228911.523   127323770.424                  
  22748032.734   119541719.085                  
  22264953.031   117003138.096                  
  22515801.492   118321355.686                  
  22374983.031   117581327.883                  
  24891880.453   130807706.812                  
  24388016.906   128159881.888                  
 18  9  7  0 35  0.0000000  0 12G 7G 1G11G18G28G19G 3G17G22G30G 6G 8
  23855708.734   125362574.714                  
  20537131.984   107923366.649                  
  21175925.758   111280232.417                  
  21932733.016   115257281.468                  
  20607841.805   108294922.824                  
  24212571.180   127237900.651                  
  22732663.273   119460953.280                  
  22255097.773   116951348.997                  
  22509091.172   118286095.246                  
  22390367.641   117662175.406                  
  24871430.375   130700247.785                  
  24403262.625   128239993.022                  
 18  9  7  0 35 30.0000000  0 12G 7G 1G11G18G28G19G 3G17G22G30G 6G 8
  23876104.453   125469757.257                  
  20546191.508   107970974.929                  
  21188552.539   111346586.562                  
  21949895.883   115347473.525                  
  20601841.656   108263392.231                  
  24196246.711   127152117.942                  
  22717352.039   119380493.095                  
  22245267.773   116899692.656                  
  22502471.961   118251310.279                  
  22405814.828   117743348.103                  
  24851002.211   130592892.355                  
  24418512.586   128320139.082                  
 18  9  7  0 36  0.0000000  0 12G 7G 1G11G18G28G19G 3G17G22G30G 6G 8
  23896509.422   125576983.052                  
  20555343.117   108019066.625                  
  21201238.453   111413251.546                  
  21967115.695   115437962.733                  
  20595909.172   108232216.002                  
  24179939.531   127066422.648                  
  22702100.008   119300341.861                  
  22235463.375   116848169.536                  
  22495943.742   118217002.543                  
  22421322.367   117824843.307                  
  24830592.844   130485642.362                  
  24433771.359   128400319.806                  
 18  9  7  0 36 30.0000000  0 12G 7G 1G11G18G28G19G 3G17G22G30G 6G 8
  23916922.102   125684248.721                  
  20564585.891   108067639.601                  
  21213982.734   111480225.164                  
  21984390.906   115528746.435                  
  20590043.875   108201396.032                  
  24163649.086   126980815.562                  
  22686906.969   119220502.785                  
  22225684.445   116796779.710                  
  22489506.055   118183173.829                  
  22436891.430   117906658.137                  
  24810204.273   130378499.705                  
  24449035.672   128480535.208                  
 18  9  7  0 37  0.0000000  0 12G 7G 1G11G18G28G19G 3G17G22G30G 6G 8
  23937340.234   125791550.204                  
  20573920.273   108116690.390                  
  21226785.977   111547504.330                  
  22001721.078   115619820.717                  
  20584247.055   108170932.715                  
  24147375.281   126895295.014                  
  22671773.844   119140977.742                  
  22215930.258   116745522.024                  
  22483159.945   118149824.880                  
  22452519.977   117988788.307                  
  24789836.359   130271464.794                  
  24464306.445   128560784.024                  
 18  9  7  0 37 30.0000000  0 12G 7G 1G11G18G28G19G 3G17G22G30G 6G 8
  23957765.617   125898885.277                  
  20583344.789   108166217.462                  
  21239646.609   111615088.216                  
  22019107.367   115711183.739                  
  20578518.508   108140828.650                  
  24131118.703   126809862.562                  
  22656701.133   119061770.559                  
  22206201.266   116694397.245                  
  22476905.898   118116958.022                  
  22468208.875   118071231.636                  
  24769488.953   130164540.043                  
  24479584.273   128641066.930                  
 18  9  7  0 38  0.0000000  0 12G 7G 1G11G18G28G19G 3G17G22G30G 6G 8
  23978195.961   126006249.149                  
  20592859.445   108216216.657                  
  21252564.648   111682972.823                  
  22036547.469   115802830.724                  
  20572857.836   108111083.517                  
  24114875.883   126724516.641                  
  22641689.313   118982882.413                  
  22196497.539   116643403.168                  
  22470743.445   118084572.860                  
  22483955.727   118153983.222                  
  24749163.406   130057725.240                  
  24494866.734   128721381.626                  
 18  9  7  0 38 30.0000000  0 12G 7G 1G11G18G28G19G 3G17G22G30G 6G 8
  23998632.773   126113641.882                  
  20602463.766   108266688.830                  
  21265540.133   111751159.464                  
  22054041.547   115894762.204                  
  20567267.141   108081702.191                  
  24098653.305   126639260.310                  
  22626739.078   118904319.449                  
  22186818.711   116592543.025                  
  22464673.117   118052674.366                  
  22499761.391   118237043.153                  
  24728858.219   129951025.225                  
  24510157.750   128801731.353                  
 18  9  7  0 39  0.0000000  0 12G 7G 1G11G18G28G19G 3G17G22G30G 6G 8
  24019073.727   126221057.917                  
  20612157.398   108317629.154                  
  21278572.078   111819643.748                  
  22071588.680   115986972.917                  
  20561745.211   108052683.612                  
  24082446.492   126554091.642                  
  22611851.258   118826082.300                  
  22177165.914   116541814.401                  
  22458695.609   118021261.416                  
  22515624.992   118320405.863                  
  24708576.461   129844439.053                  
  24525452.680   128882112.889                  
 18  9  7  0 39 30.0000000  0 12G 7G 1G11G18G28G19G 3G17G22G30G 6G 8
  24039518.078   126328495.058                  
  20621939.859   108369036.264                  
  21291660.500   111888424.781                  
  22089188.742   116079461.016                  
  20556292.648   108024031.014                  
  24066256.430   126469011.793                  
  22597025.539   118748174.894                  
  22167537.516   116491217.803                  
  22452810.164   117990336.503                  
  22531546.008   118404069.294                  
  24688314.898   129737969.441                  
  24540755.766   128962527.843                  
 18  9  7  0 40  0.0000000  0 12G 7G 1G11G18G28G19G 3G17G22G30G 6G 8
  24059966.656   126435952.739                  
  20631811.203   108420910.093                  
  21304806.039   111957502.960                  
  22106841.133   116172226.157                  
  20550910.492   107995747.936                  
  24050084.156   126384023.496                  
  22582264.422   118670602.516                  
  22157935.250   116440755.935                  
  22447019.586   117959903.478                  
  22547523.242   118488032.683                  
  24668077.547   129631620.200                  
  24556064.516   129042977.810                  
 18  9  7  0 40 30.0000000  0 12G 7G 1G11G18G28G19G 3G17G22G30G 6G 8
  24080417.758   126543424.402                  
  20641770.039   108473244.919                  
  21318006.586   112026873.094                  
  22124545.063   116265262.290                  
  20545598.727   107967832.499                  
  24033926.578   126299123.464                  
  22567566.664   118593364.841                  
  22148357.398   116390424.934                  
  22441321.398   117929960.607                  
  22563556.766   118572289.568                  
  24647863.625   129525389.641                  
  24571380.141   129123459.516                  
 18  9  7  0 41  0.0000000  0 12G 7G 1G11G18G28G19G 3G17G22G30G 6G 8
  24100871.125   126650908.258                  
  20651816.719   108526039.303                  
  21331262.859   112096534.191                  
  22142300.594   116358567.610                  
  20540356.625   107940287.401                  
  24017788.273   126214312.928                  
  22552932.938   118516465.745                  
  22138804.898   116340225.595                  
  22435717.273   117900510.182                  
  22579645.734   118656837.800                  
  24627671.516   129419280.236                  
  24586701.344   129203973.616                  
 18  9  7  0 41 30.0000000  0 12G 7G 1G11G18G28G19G 3G17G22G30G 6G 8
  24121326.492   126758402.334                  
  20661950.500   108579292.093                  
  21344574.078   112166485.474                  
  22160107.227   116452140.638                  
  20535185.805   107913115.512                  
  24001666.789   126129593.456                  
  22538365.242   118439909.436                  
  22129277.750   116290159.521                  
  22430207.133   117871554.923                  
  22595790.078   118741675.510                  
  24607502.719   129313294.828                  
  24602029.094   129284520.776                  
 18  9  7  0 42  0.0000000  0 12G 7G 1G11G18G28G19G 3G17G22G30G 6G 8
  24141783.594   126865902.027                  
  20672170.344   108632998.948                  
  21357939.750   112236723.058                  
  22177963.617   116545976.783                  
  20530086.328   107886316.552                  
  23985562.148   126044963.441                  
  22523862.078   118363696.986                  
  22119775.336   116240224.351                  
  22424791.336   117843094.407                  
  22611987.766   118826797.652                  
  24587358.086   129207433.092                  
  24617362.711   129365099.305                  
 18  9  7  0 42 30.0000000  0 12G 7G 1G11G18G28G19G 3G17G22G30G 6G 8
  24162240.086   126973405.594                  
  20682476.586   108687159.079                  
  21371360.055   112307246.807                  
  22195869.773   116640074.686                  
  20525058.305   107859893.628                  
  23969474.867   125960424.537                  
  22509425.703   118287832.931                  
  22110298.211   116190421.670                  
  22419470.125   117815131.510                  
  22628240.195   118912202.748                  
  24567237.305   129101698.180                  
  24632703.016   129445710.599                  
 18  9  7  0 43  0.0000000  0 12G 7G 1G11G18G28G19G 3G17G22G30G 6G 8
  24182697.867   127080910.450                  
  20692868.938   108741770.544                  
  21384834.539   112378055.336                  
  22213825.945   116734432.358                  
  20520102.195   107833848.764                  
  23953405.328   125875977.563                  
  22495056.047   118212320.744                  
  22100846.078   116140751.956                  
  22414243.898   117787668.334                  
  22644545.625   118997888.222                  
  24547141.969   128996092.240                  
  24648048.914   129526354.876                  
 18  9  7  0 43 30.0000000  0 12G 7G 1G11G18G28G19G 3G17G22G30G 6G 8
  24203155.141   127188411.644                  
  20703345.969   108796828.743                  
  21398362.195   112449144.315                  
  22231830.023   116829044.806                  
  20515218.031   107808181.544                  
  23937352.680   125791620.639                  
  22480753.734   118137161.164                  
  22091419.508   116091213.156                  
  22409113.016   117760703.780                  
  22660903.625   119083848.671                  
  24527069.375   128890614.528                  
  24663400.633   129607029.710                  
 18  9  7  0 44  0.0000000  0 12G 7G 1G11G18G28G19G 3G17G22G30G 6G 8
  24223611.195   127295909.809                  
  20713908.477   108852335.004                  
  21411943.953   112520515.888                  
  22249882.289   116923913.046                  
  20510406.648   107782897.157                  
  23921318.313   125707357.670                  
  22466520.055   118062360.843                  
  22082017.781   116041808.883                  
  22404077.844   117734243.180                  
  22677313.367   119170084.851                  
  24507023.016   128785270.538                  
  24678758.930   129687738.943                  
 18  9  7  0 44 30.0000000  0 12G 7G 1G11G18G28G19G 3G17G22G30G 6G 8
  24244065.367   127403398.639                  
  20724555.203   108908283.344                  
  21425577.977   112592164.472                  
  22267983.109   117019031.116                  
  20505667.992   107757993.689                  
  23905301.016   125623185.535                  
  22452354.469   117987919.217                  
  22072641.320   115992535.162                  
  22399137.289   117708284.167                  
  22693775.070   119256590.026                  
  24487001.258   128680058.214                  
  24694122.023   129768478.591                  
 18  9  7  0 45  0.0000000  0 12G 7G 1G11G18G28G19G 3G17G22G30G 6G 8
  24264517.195   127510876.318                  
  20735285.516   108964672.643                  
  21439264.930   112664089.625                  
  22286130.695   117114397.361                  
  20501001.313   107733473.965                  
  23889301.359   125539105.674                  
  22438257.477   117913840.420                  
  22063289.898   115943393.614                  
  22394293.781   117682829.261                  
  22710287.469   119343362.340                  
  24467004.750   128574980.359                  
  24709494.258   129849249.894                  
 18  9  7  0 45 30.0000000  0 12G 7G 1G11G18G28G19G 3G17G22G30G 6G 8
  24284967.414   127618341.487                  
  20746099.992   109021502.026                  
  21453004.500   112736291.054                  
  22304325.320   117210010.637                  
  20496408.867   107709341.146                  
  23873318.914   125455120.069                  
  22424230.289   117840129.058                  
  22053964.039   115894385.917                  
  22389546.422   117657881.997                  
  22726849.844   119430400.353                  
  24447035.273   128470040.258                  
  24724870.594   129930054.180                  
 18  9  7  0 46  0.0000000  0 12G 7G 1G11G18G28G19G 3G17G22G30G 6G 8
  24305414.859   127725788.343                  
  20756997.008   109078766.100                  
  21466795.484   112808763.836                  
  22322565.953   117305865.495                  
  20491890.219   107685594.045                  
  23857354.141   125371226.027                  
  22410273.820   117766784.985                  
  22044663.164   115845508.653                  
  22384895.328   117633439.900                  
  22743463.070   119517697.964                  
  24427092.875   128365236.470                  
  24740254.500   130010888.602                  
 18  9  7  0 46 30.0000000  0 12G 7G 1G11G18G28G19G 3G17G22G30G 6G 8
  24325856.609   127833217.324                  
  20767976.883   109136465.924                  
  21480638.797   112881509.773                  
  22340852.398   117401962.791                  
  20487445.555   107662237.448                  
  23841408.180   125287427.285                  
  22396387.656   117693814.715                  
  22035388.008   115796765.716                  
  22380341.133   117609507.925                  
  22760124.000   119605255.477                  
  24407176.078   128260574.024                  
  24755641.953   130091756.458                  
 18  9  7  0 47  0.0000000  0 12G 7G 1G11G18G28G19G 3G17G22G30G 6G 8
  24346296.234   127940622.506                  
  20779038.797   109194595.999                  
  21494532.984   112954523.593                  
  22359184.336   117498296.778                  
  20483074.938   107639269.909                  
  23825478.336   125203721.045                  
  22382573.438   117621218.009                  
  22026137.469   115748153.893                  
  22375883.867   117586084.424                  
  22776833.953   119693066.828                  
  24387285.961   128156051.499                  
  24771035.727   130172654.1041                 
 18  9  7  0 47 30.0000000  0 12G 7G 1G11G18G28G19G 3G17G22G30G 6G 8
  24366729.766   128048002.875                  
  20790182.492   109253155.754                  
  21508478.055   113027805.490                  
